id,latitude,longitude,sizelol,indexlol,state,county
01001,32.5084383,-86.658643,594.436,1.440369189011749,Alabama,Autauga
01003,30.52562655670103,-87.76329212371132,1589.784,4.448648809997921,Alabama,Baldwin
01005,31.88918035999999,-85.25641615999999,884.876,0.6624475741279089,Alabama,Barbour
01007,33.0131535,-87.20104474999998,622.582,0.5794848800793219,Alabama,Bibb
01009,33.9504976,-86.6349681,644.776,1.4813203699735777,Alabama,Blount
01011,32.08248306666666,-85.69903819999999,622.805,0.39769737606125244,Alabama,Bullock
01013,31.69521438461538,-86.7164906923077,776.829,0.6310486869178511,Alabama,Butler
01015,33.806179884615375,-85.9161358846154,605.868,3.2295039351240424,Alabama,Calhoun
01017,32.89243790909091,-85.26448881818182,596.531,0.918926585031265,Alabama,Chambers
01019,34.27875763157895,-85.52720405263157,553.7,0.5354233179264583,Alabama,Cherokee
01021,32.840318117647065,-86.69751829411766,692.854,1.2188958328183763,Alabama,Chilton
01023,32.02804385714286,-88.30402328571427,913.5,0.24366366963584862,Alabama,Choctaw
01025,31.63780403846154,-87.85492146153845,1238.465,0.874271901766438,Alabama,Clarke
01027,33.329102647058825,-85.92895288235293,603.961,0.49311071983511956,Alabama,Clay
01029,33.643151045454545,-85.52805722727273,560.1,0.3906726010814412,Alabama,Cleburne
01031,31.417082555555552,-86.04892966666665,678.972,1.2606321807957896,Alabama,Coffee
01033,34.71231083333334,-87.87335958333334,592.619,1.594034865486522,Alabama,Colbert
01035,31.471006461538465,-86.90311846153847,850.156,0.37667534283751436,Alabama,Conecuh
01037,32.90127092307692,-86.31562453846156,650.926,0.15559510596676343,Alabama,Coosa
01039,31.157500843749997,-86.44246059375001,1030.456,1.1849493398852895,Alabama,Covington
01041,31.681274315789473,-86.29868300000003,608.84,0.3970063144450161,Alabama,Crenshaw
01043,34.11937425,-86.874103875,734.841,2.137172422061382,Alabama,Cullman
01045,31.431634399999997,-85.6185749,561.15,1.2771262193115696,Alabama,Dale
01047,32.33924464705882,-87.08253094117647,978.695,1.207071278282473,Alabama,Dallas
01049,34.53472552631579,-85.68462752631581,777.093,2.43494484616453,Alabama,DeKalb
01051,32.6310096,-86.2041584,618.485,2.1355739730967276,Alabama,Elmore
01053,31.01863098245614,-87.21236710526316,945.08,1.1006116709152831,Alabama,Escambia
01055,33.96547009523809,-86.06555980952382,534.991,3.0878902537240043,Alabama,Etowah
01057,33.70643961538462,-87.69439746153846,627.66,0.42511564581719957,Alabama,Fayette
01059,34.419070555555564,-87.96109866666666,633.821,1.3632481040883204,Alabama,Franklin
01061,31.0450213125,-85.8863949375,574.408,0.6441645166851351,Alabama,Geneva
01063,32.76978079166667,-87.907185125,647.11,0.2191823347391723,Alabama,Greene
01065,32.73509825,-87.62390549999999,643.943,0.5034436049663972,Alabama,Hale
01067,31.58417026315789,-85.14857094736843,561.75,0.4808288990054622,Alabama,Henry
01069,31.10980178125,-85.16131193749999,579.824,2.794532474751903,Alabama,Houston
01071,34.65409476363636,-86.15689134545453,1077.868,1.5615076686585392,Alabama,Jackson
01073,33.43752929032257,-87.01059567741937,1111.276,16.134692763226404,Alabama,Jefferson
01075,33.728285850000006,-88.2087918,604.846,0.345401983373781,Alabama,Lamar
01077,34.96904936585367,-87.64502495121951,667.697,1.9257594156256583,Alabama,Lauderdale
01079,34.577068600000004,-87.269914,690.678,0.6282220935176276,Alabama,Lawrence
01081,32.579585120000004,-85.21278636000002,607.536,4.242355557989658,Alabama,Lee
01083,34.919216142857145,-86.94644100000001,559.936,2.140983040253219,Alabama,Limestone
01085,32.160739538461534,-86.71958099999999,715.911,0.44457499047925725,Alabama,Lowndes
01087,32.43613784615385,-85.73479576923077,608.885,0.3868268632846461,Alabama,Macon
01089,34.85592196153846,-86.55200634615386,801.593,6.578388345997876,Alabama,Madison
01091,32.27716904166667,-87.77626904166665,976.882,0.6622240283050819,Alabama,Marengo
01093,34.122269,-87.99875463636363,742.292,0.7473263920096275,Alabama,Marion
01095,34.5490549074074,-86.26975249999997,565.842,3.0645511086504165,Alabama,Marshall
01097,725.966738,-2116.307711,1229.435,10.82030706162666,Alabama,Mobile
01099,31.559549000000004,-87.38024562500003,1025.675,0.4274841642167678,Alabama,Monroe
01101,32.22224606666667,-86.21964346666668,784.247,6.77784407344101,Alabama,Montgomery
01103,34.47995,-86.9077929,579.337,3.1425752293613476,Alabama,Morgan
01105,32.60984053333333,-87.371721,719.664,0.37441684882485887,Alabama,Perry
01107,33.34060592307692,-88.13370392307692,881.408,0.6224699146650641,Alabama,Pickens
01109,31.8232211875,-85.89974918749999,672.094,0.8815561318449727,Alabama,Pike
01111,33.294293249999996,-85.45012787499999,580.55,0.5567291563228921,Alabama,Randolph
01113,32.30590124137932,-85.08579186206897,641.14,1.225528508252704,Alabama,Russell
01115,33.71538216666667,-86.29593605555557,631.902,2.1856728083641284,Alabama,St. Clair
01117,33.2724365,-86.67813394444445,784.93,5.225405351095013,Alabama,Shelby
01119,32.61708833333333,-88.17288942857142,903.887,0.3086967144330877,Alabama,Sumter
01121,33.376838695652175,-86.10652626086956,736.775,1.8364764514213623,Alabama,Talladega
01123,32.76941192307693,-85.80550461538463,716.521,0.929468295497568,Alabama,Tallapoosa
01125,33.30181,-87.3276918387097,1321.755,6.811890647516686,Alabama,Tuscaloosa
01127,33.76012924999999,-87.26654175,791.192,1.9238087422998444,Alabama,Walker
01129,31.407104807692306,-88.23930149999998,1080.207,0.5105354046832303,Alabama,Washington
01131,32.01594952941177,-87.32937788235293,888.498,0.35544068931475736,Alabama,Wilcox
01133,34.17224342857143,-87.40117557142857,612.979,0.6653933500898641,Alabama,Winston
02020,61.10252234375,-149.53622721874996,1704.683,6.785065158404507,Alaska,Anchorage
02230,59.530239,-135.17583642857144,452.325,0.004827715858903867,Alaska,Skagway
04001,35.61268717777778,-109.36786086666669,11197.521,2.509710512788887,Arizona,Apache
04003,31.916588789473682,-109.30352236842104,6165.69,1.5495724675526317,Arizona,Cochise
04005,35.63235677419355,-112.21675266129033,18618.885,3.645618884077777,Arizona,Coconino
04007,33.86470235,-111.01687024999998,4757.933,1.3506298608482428,Arizona,Gila
04009,33.02697665,-109.99040489999997,4622.597,0.9514510240164225,Arizona,Graham
04011,33.02742307692308,-109.1091381923077,1843.126,0.0766376314561235,Arizona,Greenlee
04012,33.67176421428573,-114.33381301428574,4499.629,0.39429834097136607,Arizona,La Paz
04013,33.59358934285714,-112.03549742857142,9200.143,101.43172119354553,Arizona,Maricopa
04015,35.775288464285715,-114.05713677678577,13311.084,2.9249360921887124,Arizona,Mohave
04017,35.238300125,-110.16894224999997,9950.422,4.122746284630015,Arizona,Navajo
04019,32.099921625,-111.50565708333336,9187.036,18.741955084299175,Arizona,Pima
04021,32.976616538461535,-111.22983130769232,5365.612,7.782697752728219,Arizona,Pinal
04023,31.518986666666667,-111.02460624999999,1236.916,1.901360280273694,Arizona,Santa Cruz
04025,34.69495217948718,-112.44887407692305,8123.499,2.076639479330224,Arizona,Yavapai
04027,32.79904963636364,-114.37187345454547,5513.992,8.780244901496122,Arizona,Yuma
05001,34.23330640909091,-91.36780768181819,988.77,0.48376115351305393,Arkansas,Arkansas
05003,33.087625111111116,-91.76870966666667,925.349,0.4001273408439944,Arkansas,Ashley
05005,36.29247873913043,-92.3221412173913,554.283,0.6361165231461043,Arkansas,Baxter
05007,36.33657009302326,-94.37275223255816,847.357,6.0180353103662245,Arkansas,Benton
05009,36.37896856249999,-93.0520264375,590.231,0.7941194644184404,Arkansas,Boone
05011,33.43668023076923,-92.13537976923075,649.231,0.233672156621673,Arkansas,Bradley
05013,33.5252069375,-92.52926325,628.581,0.06117415995432286,Arkansas,Calhoun
05015,36.40509951999999,-93.56958744000002,630.087,0.6889198846385105,Arkansas,Carroll
05017,33.24511593939394,-91.26132921212117,644.304,0.6363086125149349,Arkansas,Chicot
05019,34.11577090000001,-93.20670565,866.074,0.39864833917728404,Arkansas,Clark
05021,36.43330684615383,-90.41784812820512,639.465,0.3879212453498176,Arkansas,Clay
05023,35.5344648,-91.93608379999999,553.692,0.3534488307413166,Arkansas,Cleburne
05025,33.930825500000005,-92.20159591666668,597.783,0.17747334405744652,Arkansas,Cleveland
05027,33.10781443478261,-93.24042269565219,766.053,0.5075943603655367,Arkansas,Columbia
05029,35.22497250000001,-92.73987949999999,552.25,0.28425910454311043,Arkansas,Conway
05031,35.923670416666674,-90.53245558333334,707.206,3.4846486539815764,Arkansas,Craighead
05033,35.588186285714286,-94.2781488095238,593.094,1.5391865288850715,Arkansas,Crawford
05035,35.19919011764706,-90.19314168627454,609.76,1.6884131131210725,Arkansas,Crittenden
05037,35.31455966666666,-90.861148,616.381,0.39537440676057145,Arkansas,Cross
05039,33.99546866666667,-92.63014673333333,667.386,0.13434990636487623,Arkansas,Dallas
05041,33.808128085106404,-91.15475857446808,768.152,0.2807131337852053,Arkansas,Desha
05043,33.63333036363636,-91.77129799999999,828.356,0.30148477249302114,Arkansas,Drew
05045,35.128428,-92.32006408333332,647.884,2.402748991337715,Arkansas,Faulkner
05047,35.5048313125,-93.93349481250002,608.857,0.3867061179254825,Arkansas,Franklin
05049,36.465711153846144,-91.8228288974359,618.194,0.25306987117207613,Arkansas,Fulton
05051,34.64336178571428,-93.10800664285715,677.781,1.8937563949598089,Arkansas,Garland
05053,34.32863058333333,-92.39342875000001,631.809,0.2657987081260645,Arkansas,Grant
05055,36.12319842857143,-90.48107514285712,577.699,1.267903927484848,Arkansas,Greene
05057,33.62102360714287,-93.78489582142858,727.52,0.4254433899650084,Arkansas,Hempstead
05059,34.324104874999996,-92.989322125,615.202,1.5057285556922815,Arkansas,Hot Spring
05061,34.06056584615384,-93.98548092307692,588.554,0.4208282493400551,Arkansas,Howard
05063,35.7653788125,-91.58843943750001,763.953,1.0794476615511035,Arkansas,Independence
05065,36.01406272727272,-91.91037663636362,580.577,0.5147811941988111,Arkansas,Izard
05067,35.59840993333333,-91.27110166666667,633.938,0.7210136565447742,Arkansas,Jackson
05069,34.24701161538462,-91.88436776923078,870.746,2.777380587079932,Arkansas,Jefferson
05071,35.53530684615385,-93.41347661538462,659.804,0.6721858376908556,Arkansas,Johnson
05073,33.19212035,-93.59740604999999,528.268,0.13722441135932362,Arkansas,Lafayette
05075,36.02409715384615,-91.06991261538464,587.614,0.5909950188832387,Arkansas,Lawrence
05077,34.76064578125001,-90.59010421875,602.621,0.6640391974413412,Arkansas,Lee
05079,34.006130125,-91.634623875,561.517,1.3875874978610039,Arkansas,Lincoln
05081,33.70373342499999,-94.329295325,532.253,0.32542806574617655,Arkansas,Little River
05083,35.23082777272727,-93.68018936363636,708.125,0.4307783117556576,Arkansas,Logan
05085,34.81185758823529,-91.91759917647062,770.728,1.32965052138352,Arkansas,Lonoke
05087,35.98836386666667,-93.72617533333333,834.255,0.30566325087724666,Arkansas,Madison
05089,36.35315831249999,-92.6896745,597.009,0.16207749549883815,Arkansas,Marion
05091,33.35236306349206,-93.92951474603177,625.578,1.121267423381834,Arkansas,Miller
05093,35.78183587837837,-89.91976827027025,900.574,1.632351182238771,Arkansas,Mississippi
05095,34.6499542,-91.18487094999999,607.122,0.15619662527831482,Arkansas,Monroe
05097,34.50497883333333,-93.596466,779.88,0.1281316312092098,Arkansas,Montgomery
05099,33.64457511111111,-93.33773088888888,617.837,0.22646056247346005,Arkansas,Nevada
05101,35.94478454545454,-93.24964436363638,820.896,0.2151550672324442,Arkansas,Newton
05103,33.54184475,-92.77564856250001,732.783,0.2920275901053213,Arkansas,Ouachita
05105,34.925542785714285,-92.90455007142857,551.402,0.11928071041015274,Arkansas,Perry
05107,34.32346313793103,-90.8470106551724,695.663,0.49334319321117753,Arkansas,Phillips
05109,34.1327053,-93.67120480000001,600.618,0.18809618792841887,Arkansas,Pike
05111,35.54043275,-90.622046375,758.389,0.8499469224705738,Arkansas,Poinsett
05113,34.476386473684215,-94.35316068421054,857.679,0.3230900836899404,Arkansas,Polk
05115,35.41601305555555,-93.08557355555556,812.548,1.8636887939841842,Arkansas,Pope
05117,34.81731642105264,-91.56219763157895,647.958,0.18392232684266246,Arkansas,Prairie
05119,34.729682043478256,-92.34235365217391,759.763,8.376675808764409,Arkansas,Pulaski
05121,36.44060674074075,-91.05426399999999,652.191,0.48390001718052883,Arkansas,Randolph
05123,34.994311399999994,-90.83100680000003,634.771,1.1184444806179505,Arkansas,St. Francis
05125,34.62728741666667,-92.61639704166667,723.604,2.230897692166189,Arkansas,Saline
05127,34.8698572,-94.23596045000001,892.32,0.1753125139965917,Arkansas,Scott
05129,35.92382791666666,-92.64705583333334,666.095,0.1505495708232609,Arkansas,Searcy
05131,35.24817142857143,-94.35367420000003,531.911,3.5665483150845705,Arkansas,Sebastian
05133,33.965617466666664,-94.29395673333333,565.126,0.922810486723316,Arkansas,Sevier
05135,36.27518610526316,-91.46636115789474,604.439,0.3031521422224374,Arkansas,Sharp
05137,35.921528333333335,-92.15823193333334,606.405,0.25413959881066384,Arkansas,Stone
05139,33.076554281250004,-92.58772156250001,1039.214,0.7834694165653073,Arkansas,Union
05141,35.59256516666667,-92.57288458333333,708.143,0.16222450955974532,Arkansas,Van Buren
05143,35.9299038,-94.41610508571428,941.966,7.783680668603673,Arkansas,Washington
05145,35.24994355,-91.6862885,1035.075,1.3124413990723995,Arkansas,White
05147,35.1560505,-91.28018681249998,586.791,0.09833846553552947,Arkansas,Woodruff
05149,35.04108411764706,-93.31098688235294,929.984,0.8707404571735373,Arkansas,Yell
06001,37.70756478571429,-122.1356923142857,739.017,15.711147808210226,California,Alameda
06003,38.60659728571428,-119.80152728571429,738.332,0.01805846570376684,California,Alpine
06005,38.46161228571428,-120.58856942857145,594.583,0.24953753829729639,California,Amador
06007,39.702036954545456,-121.59082763636366,1636.464,2.0312082639415725,California,Butte
06009,38.17591028571429,-120.54905357142859,1020.012,0.23433039720794915,California,Calaveras
06011,39.20996918750001,-122.26463987500001,1150.731,0.35349920284281977,California,Colusa
06013,37.92741242666668,-122.0569776533333,715.937,12.580833949435783,California,Contra Costa
06015,41.722652018867926,-124.04173752830191,1006.373,0.13317146236445535,California,Del Norte
06017,38.81023660869566,-120.52144582608696,1707.883,0.9866224213079344,California,El Dorado
06019,36.81774804347826,-119.69529682608695,5957.991,19.68259146826965,California,Fresno
06021,39.58589161538461,-122.39524553846152,1313.947,0.4536483268034648,California,Glenn
06023,40.67201242222222,-124.13231483333327,3567.987,0.41160648616581597,California,Humboldt
06025,33.00060371428572,-114.85921488095235,4176.603,8.102767573145504,California,Imperial
06027,36.46445817647059,-117.38994202941177,10180.879,0.15286258906940506,California,Inyo
06029,35.33609128947368,-119.17864718421053,8131.916,21.17983858364608,California,Kern
06031,36.18585666666666,-119.83202613333334,1389.42,5.49233249204187,California,Kings
06033,39.139091695652176,-122.78272704347829,1256.464,0.4669134767794747,California,Lake
06035,40.25475185294119,-120.30868679411763,4541.184,0.5346336530205646,California,Lassen
06037,1382.1955829999997,-4976.768866000001,4057.884,195.98162921255135,California,Los Angeles
06039,37.221931375000004,-119.68677293749998,2137.069,3.2031084167469412,California,Madera
06041,38.00174251351351,-122.6787855765766,520.306,4.4336200089691955,California,Marin
06043,37.61821556521739,-119.97342247826089,1448.816,0.05731936281404848,California,Mariposa
06045,39.31544564356435,-123.6263601782178,3506.343,0.7578826093540378,California,Mendocino
06047,37.159090666666664,-120.69119773333333,1934.972,6.014085274619885,California,Merced
06049,41.8737206,-121.01807920000002,3917.77,0.05489034247574601,California,Modoc
06051,38.13410833333333,-119.12279892592593,3048.982,0.2609628652881888,California,Mono
06053,36.33770242201834,-121.5888902568808,3280.595,7.444829577956423,California,Monterey
06055,38.515505842105256,-122.27560863157896,748.362,1.4657256999566886,California,Napa
06057,39.281926647058825,-120.81543447058823,957.772,0.4946459453152901,California,Nevada
06059,33.66789999999999,-117.84448185714284,790.568,38.77637134056159,California,Orange
06061,39.05538225000001,-120.6258890625,1407.009,3.1139702751859977,California,Placer
06063,40.03025558620689,-120.89931737931036,2553.043,0.0790844129762508,California,Plumas
06065,33.75122876086957,-115.77883658695652,7206.48,43.64476808217046,California,Riverside
06067,38.45229265116279,-121.49204939534883,964.644,17.805889127670078,California,Sacramento
06069,36.590947703703705,-121.17504233333335,1388.71,0.9410200125816279,California,San Benito
06071,34.739046628205124,-115.65218458974358,20056.938,42.875931338083944,California,San Bernardino
06073,32.94465372881356,-117.13793513559322,4206.63,37.344376899319954,California,San Diego
06075,416.469371,-1346.71066,46.873,12.682336731864254,California,San Francisco
06077,37.89621033333333,-121.3854707878788,1391.322,13.767784044071467,California,San Joaquin
06079,35.34700925999998,-120.62074413000002,3298.567,2.959997601194611,California,San Luis Obispo
06081,37.457035270000006,-122.36367198000002,448.408,7.73046791059763,California,San Mateo
06083,1902.7983089999998,-6725.583342000002,2735.085,6.129966604359715,California,Santa Barbara
06085,37.21573273684211,-121.68467826315789,1290.1,16.758023079801834,California,Santa Clara
06087,36.996572256410246,-121.9834192051282,445.17,2.1358991551339184,California,Santa Cruz
06089,40.57957188461539,-122.33713196153846,3775.402,1.7739482560039637,California,Shasta
06091,39.572985142857135,-120.52704678571429,953.214,0.007599441761124358,California,Sierra
06093,41.67795692452828,-122.74814581132078,6277.887,0.21125717118896367,California,Siskiyou
06095,38.22236813888888,-121.97481861111113,821.765,5.286623933818348,California,Solano
06097,38.44025690322579,-123.00408737096774,1575.849,6.375342515113909,California,Sonoma
06099,37.530099095238086,-121.0585414761905,1494.827,11.233071956348066,California,Stanislaus
06101,38.942371928571426,-121.65136628571427,602.41,1.2845112757784338,California,Sutter
06103,40.19952218518519,-122.18243959259259,2949.709,0.665174866087031,California,Tehama
06105,40.78672720588236,-123.03028779411764,3179.254,0.040695841020077075,California,Trinity
06107,36.25390357692308,-118.80243773076924,4824.215,11.01222044737941,California,Tulare
06109,37.93049800000001,-119.86158864516126,2220.884,0.2716922103311847,California,Tuolumne
06111,798.0744160000003,-2868.462216,1843.133,9.570282247622336,California,Ventura
06113,38.619477882352946,-121.80136444117646,1014.689,2.2515891503608843,California,Yolo
06115,39.3888,-121.23879599999998,631.839,0.917465401391684,California,Yuba
08001,39.85610046153845,-104.68990126923077,1167.653,12.522660821246417,Colorado,Adams
08003,37.53860257142857,-105.75546885714286,722.643,0.26447689020135484,Colorado,Alamosa
08005,39.6413759516129,-104.85732961290321,798.1,11.325190991547105,Colorado,Arapahoe
08007,37.11644468421053,-106.88326831578945,1350.175,0.056702352778682547,Colorado,Archuleta
08009,37.216718571428586,-102.25336666666668,2554.967,0.02534585173431639,Colorado,Baca
08011,37.86397685714285,-103.168192,1512.861,0.01927023526737697,Colorado,Bent
08013,39.94576587248323,-105.11171561912747,726.289,4.806059957480345,Colorado,Boulder
08014,39.96463492475728,-105.07408423422318,33.034,1.3654999771095748,Colorado,Broomfield
08015,38.84454710526315,-106.26027584210527,1013.403,0.2891337785340036,Colorado,Chaffee
08017,38.7635235,-102.17015111111112,1778.276,0.015740381419571646,Colorado,Cheyenne
08019,39.678464416666664,-105.65276783333331,395.227,0.08549440459519181,Colorado,Clear Creek
08021,37.12988886666666,-106.07253653333335,1287.391,0.07095422504306609,Colorado,Conejos
08023,37.12781347619048,-105.47396999999998,1226.952,0.03390805757904048,Colorado,Costilla
08025,38.253998888888894,-103.68931022222222,787.421,0.3100956455399775,Colorado,Crowley
08027,38.059329,-105.34958160000001,738.625,0.029658823797656855,Colorado,Custer
08029,38.88218928571429,-107.84047100000001,1142.05,0.19517669125596981,Colorado,Delta
08031,39.86294238670416,-105.53888870131081,153.0,16.639732911972796,Colorado,Denver
08033,37.695882473684215,-108.71976289473685,1067.051,0.002439492624729615,Colorado,Dolores
08035,39.328223571428566,-105.00625999999998,840.248,3.9994001968514463,Colorado,Douglas
08037,39.66123858333333,-106.55028241666669,1684.53,1.0726030450690502,Colorado,Eagle
08039,39.16307622222222,-104.10720988888889,1850.847,0.21742138301272845,Colorado,Elbert
08041,38.81236272727273,-104.62141027272727,2126.801,10.162125699352043,Colorado,El Paso
08043,38.52039046153846,-105.39905015384615,1533.068,0.8661122082612973,Colorado,Fremont
08045,39.662425166666665,-107.99589827777778,2947.563,0.8874761212538623,Colorado,Garfield
08047,39.86480438461539,-105.45303330769231,149.896,0.04650508923128494,Colorado,Gilpin
08049,40.140751625,-106.14242325000002,1846.33,0.12079126335467046,Colorado,Grand
08051,38.81567376190475,-107.03906995238094,3239.1,0.23728748426887075,Colorado,Gunnison
08053,37.79354371428571,-107.32984314285714,1117.251,0.0032369172775267674,Colorado,Hinsdale
08055,37.696919478260874,-105.00652704347826,1591.001,0.046148772027647264,Colorado,Huerfano
08057,40.734106814814815,-106.39463525925925,1613.723,0.006798973404007903,Colorado,Jackson
08059,198.174954,-525.406797,764.208,8.229780948726681,Colorado,Jefferson
08061,38.45008516666667,-102.44638722222223,1767.767,0.007990928528412572,Colorado,Kiowa
08063,39.37989461111111,-102.21400411111111,2160.822,0.13429267133835626,Colorado,Kit Carson
08065,39.27652,-106.32783260000001,376.911,0.11179552110253027,Colorado,Lake
08067,37.23828115384615,-107.9810273846154,1692.078,0.3505995001789284,Colorado,La Plata
08069,40.7609456111111,-105.49986644444442,2596.002,3.7973613025051325,Colorado,Larimer
08071,37.327663750000006,-104.36465499999998,4772.672,0.06510819476473173,Colorado,Las Animas
08073,38.99591721428572,-103.53680785714286,2577.626,0.04623173138859636,Colorado,Lincoln
08075,40.941659604166674,-103.040876625,1838.547,0.9852139642915994,Colorado,Logan
08077,39.01373419047619,-108.507824,3328.974,1.9801776577752805,Colorado,Mesa
08079,37.719532,-106.92066625,875.666,0.01260620332863847,Colorado,Mineral
08081,40.6037225,-108.234645625,4743.29,0.06953425143380725,Colorado,Moffat
08083,37.217310857142856,-108.77019466666668,2029.527,0.21840369459017067,Colorado,Montezuma
08085,38.331345400000004,-108.29318860000002,2240.695,0.36222664821751344,Colorado,Montrose
08087,40.2712367,-103.8438658,1280.433,0.6974045370040359,Colorado,Morgan
08089,38.01464066666667,-103.67415083333333,1261.961,0.16060628686139872,Colorado,Otero
08091,38.121920571428575,-107.79322642857142,541.593,0.04889463679749177,Colorado,Ouray
08093,39.2247094,-105.77836930000001,2193.846,0.09419967170085317,Colorado,Park
08095,40.60381075,-102.20311387500001,687.928,0.07509689158625699,Colorado,Phillips
08097,39.15431155,-106.9147843,970.697,0.2136404113582943,Colorado,Pitkin
08099,37.89264631578948,-102.11683952631579,1638.395,0.19859802916079816,Colorado,Prowers
08101,38.134233090909085,-104.56540618181818,2386.104,2.5275415868231215,Colorado,Pueblo
08103,40.04746484210528,-108.0518415263158,3220.934,0.035229779056648314,Colorado,Rio Blanco
08105,37.604778777777774,-106.52851655555554,911.958,0.09910305029797797,Colorado,Rio Grande
08107,40.54512463157894,-106.9305722631579,2362.026,0.21462853567229023,Colorado,Routt
08109,38.04113483333334,-106.24568266666667,3168.525,0.11161470670096803,Colorado,Saguache
08111,37.79590511111111,-107.70142400000002,387.488,0.008018799997251047,Colorado,San Juan
08113,37.961466466666664,-108.39079226666667,1286.611,0.08669047091081503,Colorado,San Miguel
08115,40.977043166666675,-102.35196240000002,548.041,0.043393929013388274,Colorado,Sedgwick
08117,39.61653364705882,-106.11007670588234,608.358,0.6551748677231995,Colorado,Summit
08119,38.87960309090909,-105.16485881818181,557.055,0.2341772936043238,Colorado,Teller
08121,39.907266416666666,-103.347017,2518.031,0.08630812684544065,Colorado,Washington
08123,40.11144615693436,-104.9042420948905,3987.238,5.402666010569906,Colorado,Weld
08125,40.068201380952395,-102.18689533333334,2364.405,0.15530370357553333,Colorado,Yuma
09001,41.23610495522387,-73.33764713432838,624.89,17.875499573084188,Connecticut,Fairfield
09003,41.849397361702124,-72.74375485106383,735.097,13.262751395737467,Connecticut,Hartford
09005,41.74174204444443,-73.20606202222221,920.56,1.8265826253859143,Connecticut,Litchfield
09007,41.406389864864856,-72.53776056756759,369.301,1.6463912085941552,Connecticut,Middlesex
09009,41.3154802442748,-72.8326320458015,604.506,13.284324405763181,Connecticut,New Haven
09011,41.41218156944443,-72.08363777777775,664.878,2.8580680217630716,Connecticut,New London
09013,41.92217925925926,-72.30202151851853,410.214,1.4012686087999895,Connecticut,Tolland
09015,41.816142090909096,-72.02211442424242,512.91,1.1449442462741155,Connecticut,Windham
10001,39.1488986875,-75.495486640625,586.179,2.4039676257680433,Delaware,Kent
10003,237.535408,-453.43028200000003,426.286,9.214038023846928,Delaware,New Castle
10005,38.604653625,-75.36057663636365,936.079,5.247477989578294,Delaware,Sussex
12001,29.6522082631579,-82.32711194736844,875.02,6.89680224429493,Florida,Alachua
12003,30.415648239999996,-82.21282744,585.231,1.1166172233226537,Florida,Baker
12005,30.159661529411757,-85.64418123529411,758.459,4.422600187225544,Florida,Bay
12007,29.8747163,-82.1524054,293.962,0.7822917970752895,Florida,Bradford
12009,28.464075319148943,-80.65672876595745,1015.664,7.976516192285297,Florida,Brevard
12011,26.139587022222223,-80.2434941111111,1209.785,55.17528851822743,Florida,Broward
12013,30.398070818181818,-85.17906036363637,567.334,0.46933404415098623,Florida,Calhoun
12015,26.872143606557373,-82.159626852459,680.279,2.5384940930196596,Florida,Charlotte
12017,28.848806567567575,-82.6065223243243,581.696,2.3108678837343892,Florida,Citrus
12019,29.975344916666668,-81.85357366666668,604.36,4.080719090195247,Florida,Clay
12021,26.007364828124995,-81.55029682812501,1998.324,9.264846732184687,Florida,Collier
12023,30.39898315,-82.60860965,797.574,2.6440197636104563,Florida,Columbia
12027,27.164131166666667,-81.892181,637.059,1.04890262640429,Florida,DeSoto
12029,29.49643524999999,-83.2634765,705.053,0.5499160276105468,Florida,Dixie
12031,30.347106346153847,-81.57656449999999,762.192,22.51098494799856,Florida,Duval
12033,30.73860516883116,-87.3807446883117,656.461,8.83752389591394,Florida,Escambia
12035,29.496370785714284,-81.28793378571427,485.461,1.444307432019437,Florida,Flagler
12037,1008.4779430000002,-2886.5867910000006,534.725,0.47741086133833355,Florida,Franklin
12039,30.615388875000004,-84.6479065,516.332,1.8471203180647642,Florida,Gadsden
12041,29.803818916666668,-82.81268658333333,349.677,0.3938862049877703,Florida,Gilchrist
12043,27.053852909090907,-81.1444468181818,806.009,0.3740197817527444,Florida,Glades
12045,29.82668953703703,-85.31100518518518,564.012,0.5994005158358379,Florida,Gulf
12047,30.550865434782608,-83.01476656521739,513.79,0.554266954876646,Florida,Hamilton
12049,27.523671,-81.85829299999999,637.783,0.9943359682471525,Florida,Hardee
12051,26.52561863636364,-81.11815236363636,1152.75,1.3747260361429636,Florida,Hendry
12053,28.538893812499996,-82.537529625,472.539,2.565501836089697,Florida,Hernando
12055,27.272434846153846,-81.20971453846154,1016.615,1.8461612226233592,Florida,Highlands
12057,27.86688777941177,-82.47221550000002,1020.214,31.038423229550105,Florida,Hillsborough
12059,30.833699800000005,-85.7289861,478.777,0.6106867769685351,Florida,Holmes
12061,27.683851625,-80.54103406250002,502.872,2.642149424724563,Florida,Indian River
12063,30.880324689655176,-85.14740910344831,917.76,2.0530250480582115,Florida,Jackson
12065,30.438737399999997,-83.91266028571428,598.095,0.4259528619019504,Florida,Jefferson
12067,30.02884084615385,-83.1415623846154,543.411,0.7556636051432488,Florida,Lafayette
12069,28.849474156250004,-81.57127271874997,938.381,5.651803513269705,Florida,Lake
12071,1115.0460380000002,-3451.079868,784.513,15.318437536190089,Florida,Lee
12073,30.509101750000003,-84.16686341666667,666.852,7.9619002848050835,Florida,Leon
12075,29.197303349206354,-82.87086450793647,1118.206,0.734793951920809,Florida,Levy
12077,30.26372182352941,-84.87908688235294,835.562,0.3259291816432474,Florida,Liberty
12079,30.521846964285714,-83.43549753571428,695.948,0.6882292008268077,Florida,Madison
12081,27.515385097560976,-82.58565075609756,742.931,8.641277825414907,Florida,Manatee
12083,29.234052321428567,-82.00889428571429,1584.546,6.8593360072210094,Florida,Marion
12085,27.112186952380956,-80.3147714761905,543.464,3.398031691205805,Florida,Martin
12086,25.407163122699377,-80.4807774233129,1897.716,116.76976225302816,Florida,Miami-Dade
12087,2819.5445660000014,-9005.182872000001,983.282,1.6305421020000015,Florida,Monroe
12089,30.652598605263158,-81.75025915789475,648.639,1.616954571338737,Florida,Nassau
12091,30.69085465714286,-86.5256294,930.247,4.432931937112658,Florida,Okaloosa
12093,27.383246375000006,-80.84247737499999,768.908,1.0993344153126534,Florida,Okeechobee
12095,28.577502818181816,-81.39835004545454,903.429,29.968935305397256,Florida,Orange
12097,28.10083730434783,-81.27045260869565,1327.453,9.252401153057676,Florida,Osceola
12099,26.555703135135133,-80.17455086486488,1969.763,33.79762060385064,Florida,Palm Beach
12101,28.310932370370374,-82.58670925925928,746.886,7.423143851420012,Florida,Pasco
12103,560.585692,-1656.4775250000002,273.799,17.768215607467653,Florida,Pinellas
12105,28.06519928,-81.65277168,1797.837,14.71638960454965,Florida,Polk
12107,29.55092444444444,-81.69743544444444,727.622,1.5057579819317852,Florida,Putnam
12109,29.917325749999996,-81.42723146428573,600.655,4.4197922165637005,Florida,St. Johns
12111,27.364847611111113,-80.40737877777777,571.926,5.8474514132573105,Florida,St. Lucie
12113,30.775963,-87.03479825925925,1011.605,3.8472279974694064,Florida,Santa Rosa
12115,27.138802374999997,-82.40603353125,555.868,6.622710897099847,Florida,Sarasota
12117,28.779212514285724,-81.30156174285713,309.221,7.033872598469091,Florida,Seminole
12119,28.671732090909096,-82.08530581818182,546.933,1.9020407948820226,Florida,Sumter
12121,30.17144825,-83.03628225000001,688.552,1.8318207631423322,Florida,Suwannee
12123,29.901241775510215,-83.6272679795918,1043.305,0.914539241985251,Florida,Taylor
12125,30.002036714285712,-82.40736028571429,243.556,0.7105757237306637,Florida,Union
12127,29.068175978723406,-81.26395810638296,1101.032,8.419451095266545,Florida,Volusia
12129,30.09154674418604,-84.25686781395349,606.419,0.8611486354143971,Florida,Wakulla
12131,30.672914187499998,-86.16535649999997,1037.625,1.8813772685223817,Florida,Walton
12133,30.635485666666675,-85.66660046666667,582.803,0.7969541757227955,Florida,Washington
13001,31.77081536363637,-82.30316754545454,507.081,0.7696370871478466,Georgia,Appling
13003,31.283184909090906,-82.85950018181819,339.382,0.3315185596832605,Georgia,Atkinson
13005,31.564745222222225,-82.47471955555557,258.576,0.4378625392550687,Georgia,Bacon
13007,31.286047083333333,-84.45871124999998,341.944,0.07204089571507868,Georgia,Baker
13009,33.058522727272724,-83.22723809090908,257.844,1.5185309152311048,Georgia,Baldwin
13011,34.33098092857143,-83.46242321428574,232.091,0.40243525531178803,Georgia,Banks
13013,33.98164977777778,-83.71243666666665,160.309,1.9027328772277288,Georgia,Barrow
13015,34.150904499999996,-84.7678253888889,459.544,2.665427846939363,Georgia,Bartow
13017,31.752229399999994,-83.22873129999999,250.121,0.5798642087353627,Georgia,Ben Hill
13019,31.296557347826088,-83.18195639130434,451.897,0.378243657431283,Georgia,Berrien
13021,32.82068922222222,-83.67898033333333,249.762,4.339911129044667,Georgia,Bibb
13023,32.43743333333334,-83.32168922222223,215.87,0.40971191876248286,Georgia,Bleckley
13025,31.200466866666666,-82.02208239999999,442.362,0.4293921955279777,Georgia,Brantley
13027,30.88147527777778,-83.49738366666666,493.046,0.3662948804478034,Georgia,Brooks
13029,31.941088944444445,-81.37705705555555,435.967,0.8416858431876016,Georgia,Bryan
13031,32.40551461538461,-81.79855746153846,672.809,2.1392923888414566,Georgia,Bulloch
13033,33.082217666666665,-81.96919038888888,826.968,0.6817777854060187,Georgia,Burke
13035,33.30067436363636,-83.97146309090908,184.393,0.5877301142006144,Georgia,Butts
13037,31.545936333333334,-84.609851,280.367,0.18377162335128877,Georgia,Calhoun
13039,30.879680404255314,-81.56832006382979,613.025,0.9719987832329207,Georgia,Camden
13043,32.35993277777778,-82.06067855555554,243.044,0.36139142214877407,Georgia,Candler
13045,33.60155129411765,-85.11366711764707,499.076,2.8881271658905963,Georgia,Carroll
13047,34.92924331578948,-85.17470063157894,162.159,1.1075953529094695,Georgia,Catoosa
13049,30.6444179,-82.10899480000002,773.576,0.4448883489000237,Georgia,Charlton
13051,31.9274452542373,-81.02596579661017,426.437,6.1045844626426815,Georgia,Chatham
13053,32.39980386111112,-84.81565433333334,248.736,1.1323375047654587,Georgia,Chattahoochee
13055,34.47285328571429,-85.43430414285714,313.338,0.6877073053265232,Georgia,Chattooga
13057,34.265989749999996,-84.39268508333333,421.674,5.38245814302647,Georgia,Cherokee
13059,33.96642683333334,-83.33877450000001,119.2,4.586789296102832,Georgia,Clarke
13061,31.656870650000002,-85.03777495000001,195.381,0.0876749257659078,Georgia,Clay
13063,33.54596145000001,-84.39580765,141.57,6.1060580709178955,Georgia,Clayton
13065,30.743038285714285,-82.59623000000002,800.222,0.3095491425320664,Georgia,Clinch
13067,33.97381091999999,-84.6446242,339.549,16.031815879313353,Georgia,Cobb
13069,31.527818318181822,-82.94237631818181,575.097,1.5857330515620813,Georgia,Coffee
13071,31.180273999999997,-83.7567844,544.153,1.5157657919523753,Georgia,Colquitt
13073,33.588161562500005,-82.18265475000001,290.09,3.4401625126541764,Georgia,Columbia
13075,31.171344222222224,-83.42930466666667,227.162,0.4645605463251576,Georgia,Cook
13077,33.30840366666666,-84.72538958333332,440.892,2.6615948550013364,Georgia,Coweta
13079,32.7101091,-83.9021671,324.888,0.14421557264985832,Georgia,Crawford
13081,31.890789772727274,-83.88474268181818,272.583,0.5369645409624751,Georgia,Crisp
13083,34.82787328571429,-85.53179142857142,173.981,0.2860987422407086,Georgia,Dade
13085,34.46563425,-84.20447193750002,210.83,0.6159214127488236,Georgia,Dawson
13087,30.871947249999995,-84.57945199999999,597.14,0.8999860301541391,Georgia,Decatur
13089,33.82690006976744,-84.26740323255814,267.582,15.104314498942417,Georgia,DeKalb
13091,32.1878781875,-83.1214869375,495.89,0.6043633467191416,Georgia,Dodge
13093,32.162566777777776,-83.80807555555556,391.94,0.2740275725505153,Georgia,Dooly
13095,31.538638000000002,-84.1809258,328.689,2.164416255384957,Georgia,Dougherty
13097,33.72365455172414,-84.74051499999997,200.067,3.10650708166925,Georgia,Douglas
13099,31.26158052173913,-84.98997152173912,512.594,0.3717260680452481,Georgia,Early
13101,30.72557819999999,-82.8908876,414.894,0.1564077705949937,Georgia,Echols
13103,32.40719319047619,-81.28979480952378,477.7,1.2211354363783309,Georgia,Effingham
13105,34.13273407142857,-82.73817814285715,351.055,0.6146766315303003,Georgia,Elbert
13107,32.55173931578948,-82.32416936842105,680.604,0.8215933978038757,Georgia,Emanuel
13109,32.18908344444444,-81.89121022222223,182.853,0.3264751631905152,Georgia,Evans
13111,34.869565736842105,-84.32135068421053,386.723,0.5501254889003194,Georgia,Fannin
13113,33.385093125000004,-84.48665787499999,194.342,1.7402573430648163,Georgia,Fayette
13115,34.328148999999996,-85.26606899999999,509.911,2.877207490435648,Georgia,Floyd
13117,34.16416811111112,-84.11565188888889,224.021,3.656323392774468,Georgia,Forsyth
13119,34.380777230769226,-83.20594746153847,261.497,0.6586710472958203,Georgia,Franklin
13121,33.77332852830189,-84.46309396226415,526.635,21.61444817562562,Georgia,Fulton
13123,34.681989,-84.48749645454546,426.54,0.7007767861984557,Georgia,Gilmer
13125,33.24895885714286,-82.61956842857144,143.74,0.048871571797942895,Georgia,Glascock
13127,31.1615885,-81.41303161764706,419.753,2.4188004578854434,Georgia,Glynn
13129,34.552994937499996,-84.9010359375,355.808,1.7935797913891807,Georgia,Gordon
13131,30.831027999999996,-84.23313788888888,454.527,0.5788888656822037,Georgia,Grady
13133,33.571527181818176,-83.15058645454546,387.435,0.405799052145839,Georgia,Greene
13135,33.97743573529412,-84.12404888235291,430.383,21.38527012977457,Georgia,Gwinnett
13137,34.68187685714285,-83.51248533333332,276.74,1.2123305628534768,Georgia,Habersham
13139,34.29937353846154,-83.85231692307691,392.782,6.925732464036582,Georgia,Hall
13141,33.230897799999994,-83.0000266,471.841,0.2591524980254342,Georgia,Hancock
13143,33.814867,-85.22327822222223,282.165,0.6806878781170602,Georgia,Haralson
13145,32.72072814285714,-85.01571571428572,463.869,0.5858257296461594,Georgia,Harris
13147,34.4170582,-82.97579234999999,232.394,0.4416222189292329,Georgia,Hart
13149,33.3271838,-85.1557372,296.03,0.20223491138017236,Georgia,Heard
13151,33.50350770000001,-84.17658255,322.127,4.656957347295395,Georgia,Henry
13153,32.48817583333334,-83.66029816666668,375.541,2.6533738220804852,Georgia,Houston
13155,31.61878363636364,-83.280755,354.343,0.2397990524320251,Georgia,Irwin
13157,34.11417411111111,-83.54541933333333,339.663,1.7646705281430577,Georgia,Jackson
13159,33.287142624999994,-83.73727237499999,368.165,0.24347566587533048,Georgia,Jasper
13161,31.857591882352935,-82.54081029411765,330.74,0.5563723092116672,Georgia,Jeff Davis
13163,33.11929305,-82.37824185000001,526.485,0.5575415762061634,Georgia,Jefferson
13165,32.78916011111111,-81.93466766666667,347.279,0.293019060623704,Georgia,Jenkins
13167,32.706038,-82.71866957142856,303.01,0.30145513855695577,Georgia,Johnson
13169,32.992552714285715,-83.51090378571428,393.933,0.445432847185529,Georgia,Jones
13171,33.055766000000006,-84.15544299999999,183.5,0.37176874732005044,Georgia,Lamar
13173,30.970708000000002,-83.04632457142858,185.261,0.23593493626232406,Georgia,Lanier
13175,32.48658975,-82.91838525,807.296,1.4652717279842755,Georgia,Laurens
13177,31.839571708333338,-84.00758745833332,355.784,0.5274686193971136,Georgia,Lee
13179,31.74983388888889,-81.34255799999998,489.801,0.8719457796833829,Georgia,Liberty
13181,33.752760095238095,-82.4247597142857,210.38,0.17531915748158752,Georgia,Lincoln
13183,31.7599359,-81.7014267,400.293,0.1953536809851686,Georgia,Long
13185,30.871374186046513,-83.339420627907,496.066,3.4012083483696824,Georgia,Lowndes
13187,34.583510727272724,-84.00149336363636,282.933,0.7018181465189874,Georgia,Lumpkin
13189,33.5139725,-82.4333963888889,257.461,0.5266379508940232,Georgia,McDuffie
13191,31.485108666666672,-81.2979688611111,424.299,0.2137876173423348,Georgia,McIntosh
13193,32.3333877,-84.06927049999999,400.641,0.18848223549947846,Georgia,Macon
13195,34.1505908125,-83.21473562499999,282.311,0.6083618850566642,Georgia,Madison
13197,32.3139553,-84.5477421,366.003,0.14559633591189033,Georgia,Marion
13199,33.05686481818182,-84.65781681818181,501.223,0.4447672155837603,Georgia,Meriwether
13201,31.15204114285714,-84.74493685714286,282.421,0.2353078642166136,Georgia,Miller
13205,31.20792784615385,-84.22717669230768,512.085,0.561029785013827,Georgia,Mitchell
13207,33.06518235714286,-83.88730321428571,395.658,0.5657130277029652,Georgia,Monroe
13209,32.15841285714286,-82.53021085714286,239.523,0.24918373011362752,Georgia,Montgomery
13211,33.56610615384615,-83.53526307692307,347.349,0.4550602969631968,Georgia,Morgan
13213,34.83325136842105,-84.76640121052631,344.466,0.8156316420062242,Georgia,Murray
13215,32.47960780555555,-84.90006991666667,216.385,4.2911376087589606,Georgia,Muscogee
13217,33.54916688235294,-83.81316835294116,272.161,2.123999515711837,Georgia,Newton
13219,33.830812571428574,-83.45124771428571,184.29,0.7805070719862091,Georgia,Oconee
13221,33.873126733333336,-83.04521380000001,439.012,0.3012959102671634,Georgia,Oglethorpe
13223,33.840386208333335,-84.839582,312.219,2.626215331182624,Georgia,Paulding
13225,32.55316125,-83.86175125000001,150.267,0.609366072891099,Georgia,Peach
13227,34.471360625,-84.465534875,232.057,0.6007761257440493,Georgia,Pickens
13229,31.364297666666662,-82.21687741666666,316.494,0.6969120124391791,Georgia,Pierce
13231,33.103725857142855,-84.39019385714286,216.086,0.42767310513347423,Georgia,Pike
13233,34.01828911111111,-85.15402588888888,310.331,1.2689564135096885,Georgia,Polk
13235,32.252512857142854,-83.45645014285712,249.031,0.25851380692340326,Georgia,Pulaski
13237,33.2954595,-83.37098699999999,344.639,0.5681427778718082,Georgia,Putnam
13239,31.8815965,-85.05969391666666,151.237,0.04672065894833896,Georgia,Quitman
13241,34.8726321875,-83.359711125,369.993,0.29680785030642526,Georgia,Rabun
13243,31.764632818181816,-84.76689845454547,428.236,0.21651156899324364,Georgia,Randolph
13245,33.36879023809524,-82.10625399999999,324.326,5.578678194858054,Georgia,Richmond
13247,33.671550764705884,-84.04341429411767,129.793,1.626000912619011,Georgia,Rockdale
13249,32.28696585714285,-84.278985,166.906,0.09848572870649054,Georgia,Schley
13251,32.7529225,-81.51683022727273,645.101,0.29235937954079866,Georgia,Screven
13253,30.951332562500006,-84.93531349999999,235.226,0.29232339199417046,Georgia,Seminole
13255,33.25054073333333,-84.383533,196.469,1.321689586680082,Georgia,Spalding
13257,34.576177,-83.2703080769231,179.131,0.8391088366181583,Georgia,Stephens
13259,32.114550083333334,-84.90795416666667,458.733,0.3653789616831081,Georgia,Stewart
13261,32.06575781818181,-84.24442636363636,482.697,0.7026901124095981,Georgia,Sumter
13263,32.634227,-84.55590841176472,391.389,0.13428801867942697,Georgia,Talbot
13265,33.60030338461539,-82.87643169230768,194.608,0.023421418070457153,Georgia,Taliaferro
13267,31.976605812499997,-81.99970081250001,479.403,0.6236012735948868,Georgia,Tattnall
13269,32.55323361538462,-84.21706230769232,376.686,0.1894337225912885,Georgia,Taylor
13271,31.958681153846157,-82.93049623076922,437.303,0.3793909979514828,Georgia,Telfair
13273,31.75280641666666,-84.44195641666668,335.439,0.2320014069889948,Georgia,Terrell
13275,30.789518380952387,-83.972354,544.596,1.0869045000472697,Georgia,Thomas
13277,31.449456111111108,-83.5042607777778,258.915,1.345897397084094,Georgia,Tift
13279,32.1150991875,-82.39066818750001,364.005,0.9628575091728988,Georgia,Toombs
13281,34.84041753846154,-83.71744326923074,166.563,0.3217632873693058,Georgia,Towns
13283,32.37807154545454,-82.51625563636364,199.436,0.22618352625892413,Georgia,Treutlen
13285,33.071578333333335,-85.11086644444444,413.988,2.1999450066792727,Georgia,Troup
13287,31.729543999999997,-83.60270449999999,285.393,0.24418932117355183,Georgia,Turner
13289,32.744641333333334,-83.45845277777777,358.398,0.14723010222650015,Georgia,Twiggs
13291,34.87844741176471,-83.99698164705885,321.926,0.5971490617013442,Georgia,Union
13293,32.86572872727273,-84.29511372727274,323.437,0.8261983874689961,Georgia,Upson
13295,34.777315884615376,-85.22752249999999,446.379,1.3547388429068148,Georgia,Walker
13297,33.78337436363636,-83.80851399999999,325.68,1.768391801714214,Georgia,Walton
13299,31.021832592592588,-82.41008922222224,892.461,1.452008680758751,Georgia,Ware
13301,33.47878888235294,-82.6329061764706,284.298,0.11961801859490119,Georgia,Warren
13303,32.996220230769225,-82.7724453076923,678.452,0.5926926642121477,Georgia,Washington
13305,31.59999672222223,-81.92578738888888,641.777,0.8920697306118719,Georgia,Wayne
13307,32.018629250000004,-84.552022875,209.118,0.037905861074203635,Georgia,Webster
13309,32.12991875,-82.72786841666667,295.484,0.2518017996550217,Georgia,Wheeler
13311,34.73758443478261,-83.72727478260869,240.686,0.6762056516988171,Georgia,White
13313,34.88264208333334,-84.92900379166666,290.464,3.9182686629389254,Georgia,Whitfield
13315,31.965063999999995,-83.41091,377.705,0.20169171869132346,Georgia,Wilcox
13317,33.71988788888889,-82.71856683333334,469.49,0.23347046880954264,Georgia,Wilkes
13319,32.82724054545454,-83.16335609090908,447.308,0.24385384720463157,Georgia,Wilkinson
13321,31.591068250000003,-83.89997275,570.702,0.41163728368137575,Georgia,Worth
15001,19.604205913043476,-155.54001117391294,4028.417,0.8952548286863573,Hawaii,Hawaii
15003,21.428677992957745,-157.90991934507036,600.743,8.871152141399877,Hawaii,Honolulu
15007,151.616783,-1123.851746,619.956,0.08456430955567296,Hawaii,Kauai
15009,1544.239711,-11463.827732999996,1161.521,0.4682464073109371,Hawaii,Maui
16001,43.45465593333333,-116.29278219999999,1052.576,12.37054139305088,Idaho,Ada
16003,44.900656285714284,-116.56750678571427,1363.056,0.053159763191309564,Idaho,Adams
16005,42.682564818181824,-112.26166163636363,1111.988,1.9817595562731813,Idaho,Bannock
16007,42.307478280000005,-111.30691580000001,974.785,0.07586027340584493,Idaho,Bear Lake
16009,47.241403857142856,-116.86209257142856,776.617,0.1313245752788565,Idaho,Benewah
16011,43.29166754545455,-112.49770195454545,2093.978,1.204738654266492,Idaho,Bingham
16013,43.41749017777777,-114.00201875555554,2643.586,0.6321758501401256,Idaho,Blaine
16015,43.99406218518517,-115.54788099999999,1899.237,0.06663149964349176,Idaho,Boise
16017,48.228843,-116.72875538888886,1734.573,0.4181365841340784,Idaho,Bonner
16019,43.236682676470586,-111.30743141176468,1866.077,3.433542747644564,Idaho,Bonneville
16021,48.8738169090909,-116.5798862727273,1268.56,0.170748106077787,Idaho,Boundary
16023,43.68317692000001,-113.25317516000001,2231.667,0.06600883905339348,Idaho,Butte
16025,43.515791647058826,-114.70689723529411,1074.493,0.030092570891676888,Idaho,Camas
16027,43.687267500000004,-116.82113981818185,587.37,7.199179773803996,Idaho,Canyon
16029,42.74008616000002,-111.5246464,1764.146,0.2200086820250002,Idaho,Caribou
16031,42.26884873529412,-113.70460808823529,2565.081,1.04145384154871,Idaho,Cassia
16033,44.414426117647075,-112.29059445098042,1764.185,0.02656198179777272,Idaho,Clark
16035,46.66649777142857,-115.1976768857143,2457.274,0.1450374777692132,Idaho,Clearwater
16037,44.28948645454543,-114.4559100181818,4920.94,0.07018109002775214,Idaho,Custer
16039,43.477072222222226,-115.43564436111112,3074.738,0.42869996965350876,Idaho,Elmore
16041,42.161849800000006,-111.81885126666667,663.645,0.2757871838061817,Idaho,Franklin
16043,44.30951084615385,-111.48923605128206,1863.525,0.3569151771487266,Idaho,Fremont
16045,44.11866817647059,-116.39752011764705,560.9,0.33548681853216655,Idaho,Gem
16047,42.90148258333334,-114.81087016666667,728.973,0.48440075142293504,Idaho,Gooding
16049,45.90951564130435,-115.25475040217391,8477.352,0.3065868365232619,Idaho,Idaho
16051,43.85687883333333,-112.19939666666666,1093.501,0.7261710852361446,Idaho,Jefferson
16053,42.65693376470588,-114.16989835294117,597.185,0.9337092109754315,Idaho,Jerome
16055,47.63241496875,-116.92311046875001,1244.125,3.358890899327709,Idaho,Kootenai
16057,46.77245191666666,-116.73531758333333,1075.996,0.7901428896069125,Idaho,Latah
16059,45.064723359999974,-113.80313628999998,4563.387,0.22422949227638658,Idaho,Lemhi
16061,46.24562686666666,-116.3954502,478.795,0.08708043502073362,Idaho,Lewis
16063,42.93846258333334,-114.10123300000002,1201.405,0.17549871177346155,Idaho,Lincoln
16065,43.825425800000005,-111.6614781,469.206,1.934937928338358,Idaho,Madison
16067,42.766638923076925,-113.67329246153847,757.591,0.8689055135871736,Idaho,Minidoka
16069,46.289257655172406,-116.81511575862072,848.092,0.9607527384778164,Idaho,Nez Perce
16071,42.143510466666676,-112.51618503333336,1200.061,0.05460924721277614,Idaho,Oneida
16073,42.81574521428571,-116.43563755357138,7665.511,0.27368668993220485,Idaho,Owyhee
16075,43.984965538461545,-116.76568176923075,406.867,0.7874335738419149,Idaho,Payette
16077,42.70339765217391,-112.84724382608692,1404.244,0.24280325710935502,Idaho,Power
16079,47.45955968292682,-115.68672190243903,2629.665,0.2186414421193902,Idaho,Shoshone
16081,43.73506535294118,-111.11682935294118,449.456,0.2545766594900616,Idaho,Teton
16083,42.399446416666656,-114.59699258333335,1921.213,3.3252910684880415,Idaho,Twin Falls
16085,44.682941366666675,-115.57577713333333,3664.515,0.11121646671950877,Idaho,Valley
16087,44.42178365853658,-116.96010356097565,1452.982,0.3395084219093887,Idaho,Washington
17001,39.940433,-91.29570889473685,855.202,2.0163930868253837,Illinois,Adams
17003,37.087863875,-89.29749359375002,235.509,0.12578334217460055,Illinois,Alexander
17005,38.895362222222225,-89.47732377777778,380.279,0.46485004223038634,Illinois,Bond
17007,42.39652971428571,-88.78348385714285,280.719,1.7718875279920057,Illinois,Boone
17009,39.94048709090909,-90.66625745454546,305.607,0.1295834997781156,Illinois,Brown
17011,41.325395647058826,-89.6046815882353,869.031,0.9169254456195647,Illinois,Bureau
17013,39.05513903225806,-90.63253267741936,253.825,0.09016826247947235,Illinois,Calhoun
17015,42.07051491304348,-90.11088760869563,444.807,0.49856703584375855,Illinois,Carroll
17017,40.00462172727273,-90.29496890909091,375.818,0.40730209968679476,Illinois,Cass
17019,40.206321833333334,-88.28550700000001,996.266,5.173984531799051,Illinois,Champaign
17021,39.65457344444444,-89.2435997222222,709.377,0.8469167066157526,Illinois,Christian
17023,39.33704584615385,-87.65527146153848,501.418,0.34740520566674865,Illinois,Clark
17025,38.7678937,-88.4761563,468.316,0.3107874484336932,Illinois,Clay
17027,38.615920916666674,-89.44444066666667,474.085,1.455163065505847,Illinois,Clinton
17029,39.533806000000006,-88.21133588888888,508.291,1.6271430228799133,Illinois,Coles
17031,41.936587968992235,-87.7471180387597,945.326,143.51254076948837,Illinois,Cook
17033,38.98057923809523,-87.63848457142856,443.629,0.4871466032928539,Illinois,Crawford
17035,39.260575125,-88.28455124999999,346.024,0.2818051916669998,Illinois,Cumberland
17037,41.89239254545454,-88.72092018181819,631.307,2.306651847507619,Illinois,DeKalb
17039,40.20531316666667,-88.83201983333333,397.513,0.2939830534033429,Illinois,De Witt
17041,39.77655325,-88.221889625,416.665,0.6434499189859322,Illinois,Douglas
17043,41.87583219230768,-88.1019191153846,327.499,20.58248910177014,Illinois,DuPage
17045,39.65742720000001,-87.59577325,623.374,0.3340963774403726,Illinois,Edgar
17047,38.344270800000004,-88.01130326666664,222.416,0.09757351996997012,Illinois,Edwards
17049,39.081354499999996,-88.5755444,478.777,1.143106321805123,Illinois,Effingham
17051,39.074761333333335,-89.02125885714285,716.482,0.6720877383988411,Illinois,Fayette
17053,40.682593076923084,-88.15407476923077,485.616,0.2917100567798434,Illinois,Ford
17055,37.93710045454545,-88.90895527272727,408.889,0.9115621329981307,Illinois,Franklin
17057,40.560556181818185,-90.26264736363636,865.595,0.5851283106459334,Illinois,Fulton
17059,37.77772764285714,-88.19631614285717,323.071,0.09628891720939467,Illinois,Gallatin
17061,39.339715,-90.418887,543.019,0.34749875131549285,Illinois,Greene
17063,41.23827877777778,-88.35028766666667,418.043,1.137962725364603,Illinois,Grundy
17065,37.9988935,-88.5063023,434.665,0.15522996642612985,Illinois,Hamilton
17067,40.46083978124999,-91.31141703125,793.726,0.41951228233748217,Illinois,Hancock
17069,37.50521086363636,-88.2162361363636,177.528,0.05475312393947108,Illinois,Hardin
17071,40.81228334782609,-91.00784573913042,378.872,0.12462367093229351,Illinois,Henderson
17073,41.34764946666667,-90.08950820000001,822.985,1.0102043001724033,Illinois,Henry
17075,40.74572947058824,-87.62070170588235,1117.316,0.6596109593771944,Illinois,Iroquois
17077,37.71405553333332,-89.44270279999999,584.081,1.248012237139939,Illinois,Jackson
17079,39.019284375,-88.15682587499998,494.51,0.28133894191877684,Illinois,Jasper
17081,38.28351875,-88.92201237500001,571.169,0.819680399317771,Illinois,Jefferson
17083,39.05758000000001,-90.38958486666667,369.271,0.5274621264138036,Illinois,Jersey
17085,42.44362450000001,-90.35164707812498,601.087,0.5119155109093142,Illinois,Jo Daviess
17087,37.461859625,-88.9039255,343.915,0.3249970736992547,Illinois,Johnson
17089,41.881871545454544,-88.3517659090909,520.058,14.843349478105441,Illinois,Kane
17091,41.11563268,-87.84414540000003,676.556,3.51786610807598,Illinois,Kankakee
17093,41.6220575,-88.3952985,320.335,2.80074069554068,Illinois,Kendall
17095,40.946211312500004,-90.2054081875,716.395,1.183757999157954,Illinois,Knox
17097,42.32424552542372,-87.85451620338982,443.67,17.693598233079108,Illinois,Lake
17099,41.338150642857144,-88.9518307142857,1135.124,2.596004224362286,Illinois,LaSalle
17101,38.70480366666667,-87.6256427142857,372.178,0.3415662208162161,Illinois,Lawrence
17103,41.7050028,-89.37232739999999,724.896,0.813592170456976,Illinois,Lee
17105,40.88165266666667,-88.524455,1044.285,0.8909712560597182,Illinois,Livingston
17107,40.13174872727273,-89.33738654545455,618.059,0.656565149791763,Illinois,Logan
17109,40.53399371428572,-90.7404782857143,589.407,0.7314107077436134,Illinois,McDonough
17111,42.380521117647056,-88.36645547058824,603.171,6.489687685638932,Illinois,McHenry
17113,40.52310342105263,-88.84520784210528,1183.378,3.7666316377923383,Illinois,McLean
17115,39.812637411764705,-89.03497035294119,580.689,2.956075036870188,Illinois,Macon
17117,39.251882095238095,-89.85510223809524,862.906,0.8396986758646309,Illinois,Macoupin
17119,38.8515092195122,-89.96869102439022,715.582,6.2541247995163785,Illinois,Madison
17121,38.59931077777778,-88.99400511111111,572.363,1.0229756036012714,Illinois,Marion
17123,41.06364590909091,-89.38615527272728,386.789,0.15104913276462856,Illinois,Marshall
17125,40.211141125,-89.956460625,539.238,0.2833254970449075,Illinois,Mason
17127,37.151851823529405,-88.66176829411765,237.218,0.18141403210724852,Illinois,Massac
17129,40.053313,-89.7921918,314.437,0.1855939747099279,Illinois,Menard
17131,41.16140628571428,-90.838119,561.202,0.324723067550746,Illinois,Mercer
17133,38.281547272727266,-90.23432304545454,385.011,0.867168362185074,Illinois,Monroe
17135,39.15887258823529,-89.48983841176471,703.687,0.5296337145970705,Illinois,Montgomery
17137,39.73115564285714,-90.348656,568.791,0.9282662583274358,Illinois,Morgan
17139,39.626453833333336,-88.64392525,335.943,0.40096035958225706,Illinois,Moultrie
17141,42.04496016666667,-89.3535045,758.574,1.256945567214614,Illinois,Ogle
17143,40.795171823529415,-89.82006047058822,619.209,3.9665103125673076,Illinois,Peoria
17145,38.115250142857136,-89.34072385714286,441.761,0.4260955754057786,Illinois,Perry
17147,39.9891966,-88.56129190000001,439.202,0.3389812107657167,Illinois,Piatt
17149,39.652944724137924,-91.000384,831.381,0.44993647001974496,Illinois,Pike
17151,37.27961840909091,-88.4865205,368.77,0.037913270242361505,Illinois,Pope
17153,37.22078682352941,-89.03995217647059,199.185,0.18821370411887223,Illinois,Pulaski
17155,41.19232933333333,-89.3449731111111,160.161,0.10215607275703599,Illinois,Putnam
17157,37.97248670833333,-89.89128462499998,575.5,1.009064451528727,Illinois,Randolph
17159,38.65133209090909,-88.03161818181816,359.99,0.29517745742354934,Illinois,Richland
17161,41.56070165714286,-90.48509822857145,427.636,3.8461438792088476,Illinois,Rock Island
17163,38.53487481818183,-90.09549086363636,657.759,6.043490815607474,Illinois,St. Clair
17165,37.83688394736841,-88.51060147368422,379.819,0.5091620642017938,Illinois,Saline
17167,39.74666081481482,-89.55286803703704,868.302,4.294404826894477,Illinois,Sangamon
17169,40.144757416666664,-90.61265566666667,437.273,0.0925824360956455,Illinois,Schuyler
17171,39.63909825,-90.46923675,250.913,0.10795058587761822,Illinois,Scott
17173,39.350173,-88.83812938461539,758.523,0.6018255078974243,Illinois,Shelby
17175,41.1221788,-89.787225,288.079,0.09421775026250209,Illinois,Stark
17177,42.47494571874999,-89.6282370625,564.523,1.1570498433168939,Illinois,Stephenson
17179,40.518079166666666,-89.54209833333334,648.974,2.6710290212921666,Illinois,Tazewell
17181,37.447985826086956,-89.3935056521739,413.459,0.5564275649082489,Illinois,Union
17183,40.18478178571429,-87.58826364285714,898.368,1.6373402557403303,Illinois,Vermilion
17185,38.435653423076936,-87.85287257692309,223.252,0.22702052395192635,Illinois,Wabash
17187,40.723386285714284,-90.49346221428573,542.405,0.4710963550306696,Illinois,Warren
17189,38.39925372727272,-89.43107845454547,562.572,0.2848826618802134,Illinois,Washington
17191,38.4479719,-88.4437409,713.814,0.42038410561544814,Illinois,Wayne
17193,38.112890333333326,-88.03268121212123,494.766,0.23760709181947098,Illinois,White
17195,41.739774789473685,-90.02999199999998,684.25,1.674204964944682,Illinois,Whiteside
17197,41.48968224,-87.84582336,836.908,16.80263219126928,Illinois,Will
17199,37.67402457142857,-88.90308342857142,420.149,1.6511746033771244,Illinois,Williamson
17201,42.45144378571428,-89.13613689285717,513.362,8.96406358007516,Illinois,Winnebago
17203,40.748022285714285,-89.1910532142857,527.799,0.7060509509993209,Illinois,Woodford
18001,40.73021472222222,-84.83221255555557,339.028,0.705940475910145,Indiana,Adams
18003,41.12721386956522,-84.96265091304349,657.308,7.862269502632136,Indiana,Allen
18005,39.22306012499999,-85.86471818750002,406.908,1.3307131975408526,Indiana,Bartholomew
18007,40.594542153846156,-87.3411133846154,406.418,0.11921458486803307,Indiana,Benton
18009,40.44176016666666,-85.28985383333331,165.08,0.23485481507059408,Indiana,Blackford
18011,40.03791533333332,-86.37165355555557,422.913,1.1182328698578234,Indiana,Boone
18013,39.208725,-86.20663074999999,311.981,0.150796268440145,Indiana,Brown
18015,40.62925699999999,-86.61263107692308,372.224,0.31941444860485285,Indiana,Carroll
18017,40.7100412,-86.3587986,412.155,1.5841762866197617,Indiana,Cass
18019,38.4133892,-85.66953357142854,372.855,2.449963123907524,Indiana,Clark
18021,39.3585655,-87.10387025,357.542,0.47558192054887344,Indiana,Clay
18023,40.26892533333333,-86.42572899999999,405.07,0.8241701051939548,Indiana,Clinton
18025,38.23010646666667,-86.41876546666666,305.643,0.13804575890841028,Indiana,Crawford
18027,38.72393890909091,-87.10463790909093,429.487,0.7187558959926881,Indiana,Daviess
18029,39.16773847619047,-84.86886890476191,305.034,0.9592787684596604,Indiana,Dearborn
18031,39.2481926923077,-85.57062976923076,372.568,0.5887435590886504,Indiana,Decatur
18033,41.41822825,-84.85291274999999,362.824,0.7694072582404952,Indiana,DeKalb
18035,40.280811299999996,-85.36848549999999,392.124,2.4060895323358427,Indiana,Delaware
18037,38.323782,-86.86060972727273,427.269,1.1971965053869136,Indiana,Dubois
18039,41.66587776,-85.87991136000001,463.17,8.02724414476889,Indiana,Elkhart
18041,39.65488700000001,-85.15895,215.014,0.7126004220020487,Indiana,Fayette
18043,38.32398428571428,-85.89509814285715,147.935,1.6186517304288666,Indiana,Floyd
18045,40.089439,-87.21000864999999,395.656,0.33475503022940445,Indiana,Fountain
18047,39.4253664117647,-84.98757829411763,384.43,0.31206336474839186,Indiana,Franklin
18049,41.0330106,-86.1209474,368.388,0.3774760492721946,Indiana,Fulton
18051,38.31217747058823,-87.61695388235295,487.486,0.8139881758205243,Indiana,Gibson
18053,40.51867042857143,-85.66572378571426,414.074,1.1668484190932351,Indiana,Grant
18055,39.00882845454546,-86.99346618181818,542.495,0.48464028411235094,Indiana,Greene
18057,40.021676777777785,-86.06596611111111,394.267,5.837929970814856,Indiana,Hamilton
18059,39.84481075,-85.81832966666667,306.016,1.1600505643341588,Indiana,Hancock
18061,38.109766965517245,-86.07361351724137,484.516,0.6644463557069068,Indiana,Harrison
18063,39.72691266666667,-86.50062722222222,406.911,2.7411709938600195,Indiana,Hendricks
18065,39.949382,-85.3693587,391.876,1.1487149753625712,Indiana,Henry
18067,40.49928659999999,-86.16222769999999,293.057,1.4319655272336993,Indiana,Howard
18069,40.86126725,-85.46460099999999,382.651,0.5092396480712065,Indiana,Huntington
18071,38.92436884615385,-86.0946026923077,509.312,0.9816498431380144,Indiana,Jackson
18073,41.08765093333333,-87.07617633333332,559.625,0.6486285323994546,Indiana,Jasper
18075,40.41569,-84.96879649999998,383.905,0.4092303431378013,Indiana,Jay
18077,38.72078527272727,-85.39466159090908,360.631,0.4575532204907992,Indiana,Jefferson
18079,39.00088755555556,-85.65552522222224,376.583,0.38157152914575215,Indiana,Jennings
18081,39.48801613333333,-86.05497039999999,320.427,2.8205726571007075,Indiana,Johnson
18083,38.71550250000001,-87.50543318749999,516.031,0.799841851188015,Indiana,Knox
18085,41.20033227272727,-85.86070099999999,531.381,1.9350568729047148,Indiana,Kosciusko
18087,41.74282496428572,-85.43837446428572,379.624,0.7000370803856609,Indiana,LaGrange
18089,41.563936119047625,-87.43861383333333,498.961,12.730981440422902,Indiana,Lake
18091,41.6429275652174,-86.76127873913045,598.299,2.14192263131991,Indiana,LaPorte
18093,38.88908333333333,-86.48635255555556,449.168,0.8574722416860964,Indiana,Lawrence
18095,40.16601855555555,-85.7047641111111,451.915,2.231819988379448,Indiana,Madison
18097,39.78107936842106,-86.13566684210525,396.298,20.30282728014681,Indiana,Marion
18099,41.3665651,-86.18285549999999,443.629,1.3525284793548051,Indiana,Marshall
18101,38.69583057142857,-86.78315057142856,335.737,0.16547815784457232,Indiana,Martin
18103,40.72786411111111,-86.01212255555555,373.842,0.6540768647951427,Indiana,Miami
18105,39.13831864285714,-86.50401242857143,394.509,2.5627437673586857,Indiana,Monroe
18107,40.01456881818182,-86.93992836363635,504.613,0.604952441211284,Indiana,Montgomery
18109,39.49650833333333,-86.43495686666665,403.969,0.9349831076843453,Indiana,Morgan
18111,41.021765217391305,-87.48847460869563,401.759,0.25547443521850366,Indiana,Newton
18113,41.39205455555556,-85.49990022222222,410.843,1.1240037135864764,Indiana,Noble
18115,38.955557125000006,-84.958760875,86.14,0.12189638968879464,Indiana,Ohio
18117,38.526075375,-86.44871200000001,398.387,0.32990782685275577,Indiana,Orange
18119,39.3280855,-86.7991026,385.288,0.26169871458099286,Indiana,Owen
18121,39.858762705882356,-87.21006311764707,444.663,0.24352383476504397,Indiana,Parke
18123,38.00603318918919,-86.61952367567565,381.727,0.41737510671268824,Indiana,Perry
18125,38.38358662500001,-87.27596925,334.238,0.2690345742216359,Indiana,Pike
18127,41.55284773684211,-87.06371289473684,418.153,3.6045751131259616,Indiana,Porter
18129,37.95686278571429,-87.9259810714286,409.571,0.6054442022111205,Indiana,Posey
18131,41.009101375,-86.73250375,433.649,0.18446154000208628,Indiana,Pulaski
18133,39.621104,-86.85722311111111,480.528,0.5961097408294026,Indiana,Putnam
18135,40.15294561111111,-84.8970616666667,452.379,0.5224550216607277,Indiana,Randolph
18137,39.10709036363635,-85.26125027272725,446.426,0.5221320062919601,Indiana,Ripley
18139,39.6233476,-85.46194890000001,408.124,0.25351430365631433,Indiana,Rush
18141,41.62964929166667,-86.33817866666669,457.85,8.009449213078474,Indiana,St. Joseph
18143,38.6726599,-85.72888780000001,190.397,0.46398615204046983,Indiana,Scott
18145,39.477534187500005,-85.826398625,411.147,0.8453467400743464,Indiana,Shelby
18147,37.926569666666666,-87.01416887878787,396.744,0.3880616154371664,Indiana,Spencer
18149,41.32826784615384,-86.66776415384616,309.134,0.4410765148326084,Indiana,Starke
18151,41.711441379310344,-84.92552413793105,308.939,0.6385335400191547,Indiana,Steuben
18153,39.091329555555554,-87.52756450000001,447.142,0.38121280390566914,Indiana,Sullivan
18155,38.81168084,-84.99908532,220.633,0.1234280828357122,Indiana,Switzerland
18157,40.4341357,-86.9417148,499.806,3.699997303230122,Indiana,Tippecanoe
18159,40.3286,-86.0047675,260.541,0.25658120948164753,Indiana,Tipton
18161,39.617382000000006,-84.84419133333333,161.224,0.13074177359425815,Indiana,Union
18163,37.919295999999996,-87.60396685714285,233.475,4.847241134781385,Indiana,Vanderburgh
18165,39.887135892857145,-87.50199707142858,256.878,0.26320138721163555,Indiana,Vermillion
18167,39.42737862962963,-87.497182,403.313,2.623645748863623,Indiana,Vigo
18169,40.89881475,-85.83512441666666,412.434,0.6051145318727693,Indiana,Wabash
18171,40.29635594444445,-87.38009899999999,364.681,0.10373125505877168,Indiana,Warren
18173,38.04831163157895,-87.28793942105263,384.815,1.6010772265451205,Indiana,Warrick
18175,38.544332187500004,-86.06861906250002,513.725,0.3337140168702212,Indiana,Washington
18177,39.844730600000005,-84.86888244,401.74,1.3844443071955703,Indiana,Wayne
18179,40.7330274,-85.2862108,368.087,0.515572455556476,Indiana,Wells
18181,40.762033200000005,-86.83440446666665,505.125,0.5528846645673534,Indiana,White
18183,41.153354300000004,-85.5520806,335.569,0.567395705782487,Indiana,Whitley
19001,41.27295766666666,-94.43278133333332,569.271,0.19601018910773868,Iowa,Adair
19003,41.08438928571429,-94.73293985714285,423.439,0.07624628746125833,Iowa,Adams
19005,43.37499837037036,-91.32792807407408,639.082,0.3496534039226156,Iowa,Allamakee
19007,40.616690772727274,-92.8276688181818,497.292,0.34706682375775405,Iowa,Appanoose
19009,41.63064325,-94.894654625,442.961,0.14870428799124424,Iowa,Audubon
19011,42.15292366666666,-92.02587983333332,716.265,0.7615834405258847,Iowa,Benton
19013,42.44857749999999,-92.338356,565.769,5.194211773512286,Iowa,Black Hawk
19015,42.06124657142857,-93.88153742857142,571.569,0.6213367940117852,Iowa,Boone
19017,42.8011214,-92.3652286,435.477,0.8350450222969548,Iowa,Bremer
19019,42.412527833333336,-91.79642283333334,571.02,0.509877115090168,Iowa,Buchanan
19021,42.770269600000006,-95.10369139999999,574.915,1.573505406251106,Iowa,Buena Vista
19023,42.71950542857143,-92.75640742857142,580.131,0.42854559246946633,Iowa,Butler
19025,42.41435188888889,-94.70284422222223,569.968,0.4624273841359924,Iowa,Calhoun
19027,41.96195085714286,-94.75819442857143,569.437,0.9806874402885932,Iowa,Carroll
19029,41.31245966666667,-94.96599555555555,564.269,0.370811072961944,Iowa,Cass
19031,41.797241285714286,-91.16587214285714,579.436,0.4816790795127318,Iowa,Cedar
19033,43.13256950000001,-93.18229566666668,568.313,1.4724362652733713,Iowa,Cerro Gordo
19035,42.710406285714285,-95.692399,576.906,0.3601294892761709,Iowa,Cherokee
19037,43.03828199999999,-92.238975,504.38,0.3502873415393287,Iowa,Chickasaw
19039,41.08410942857143,-93.83504085714286,431.167,0.2505446774545551,Iowa,Clarke
19041,43.11701860000001,-95.1983902,567.238,0.5066129715278214,Iowa,Clay
19043,42.844539049999995,-91.13471854999999,778.539,0.47840060770444065,Iowa,Clayton
19045,41.86139885714285,-90.32278409523809,694.915,1.4755609700250252,Iowa,Clinton
19047,42.012298428571434,-95.35727714285714,714.19,0.9334476852525737,Iowa,Crawford
19049,41.68590155555555,-94.06263288888888,588.447,3.034964398824578,Iowa,Dallas
19051,40.63822131818181,-92.35606877272727,502.188,0.18239851617162078,Iowa,Davis
19053,40.593836923076914,-93.76727535897436,531.881,0.1566807189006542,Iowa,Decatur
19055,42.41247933333333,-91.3655685,577.756,0.6926742189795514,Iowa,Delaware
19057,40.897544749999994,-91.09948904999999,416.123,1.3311579930417627,Iowa,Des Moines
19059,43.48164426923077,-95.11424850000003,380.606,0.6314380909314052,Iowa,Dickinson
19061,42.510939115384616,-90.7266886923077,608.305,4.486655093723352,Iowa,Dubuque
19063,43.473160888888884,-94.73694527777778,395.883,0.35096270925491974,Iowa,Emmet
19065,42.833577,-91.84396666666667,730.811,0.4563836822052628,Iowa,Fayette
19067,43.029567,-92.8365944,500.632,0.4253043151034186,Iowa,Floyd
19069,42.767816599999996,-93.3097726,581.972,0.3284883191658206,Iowa,Franklin
19071,40.667066852941176,-95.70957467647061,511.15,0.16366788990911085,Iowa,Fremont
19073,42.06094914285715,-94.380252,569.574,0.22701385438968213,Iowa,Greene
19075,42.361673875,-92.773556125,501.858,0.36134256153764965,Iowa,Grundy
19077,41.75621493333333,-94.6021888,590.62,0.35448970150958736,Iowa,Guthrie
19079,42.38384033333333,-93.68411144444445,576.751,0.4391950793857914,Iowa,Hamilton
19081,43.0469724,-93.7818286,571.005,0.3772784752080502,Iowa,Hancock
19083,42.361588375,-93.26893799999999,569.307,0.49929192668951816,Iowa,Hardin
19085,41.66000103124999,-95.99395018749999,696.848,0.5127618387267692,Iowa,Harrison
19087,40.99715111111111,-91.50353355555556,434.328,0.8848594266289398,Iowa,Henry
19089,43.46855594444444,-92.30638922222222,473.248,0.23293605561093308,Iowa,Howard
19091,42.750174,-94.2544144,434.352,0.33244749378000915,Iowa,Humboldt
19093,42.40614911111111,-95.50759166666666,431.508,0.2254032959967316,Iowa,Ida
19095,41.627736000000006,-92.08330083333334,586.457,0.43135704810127506,Iowa,Iowa
19097,42.19645106896552,-90.38987986206895,636.039,0.6953470104322745,Iowa,Jackson
19099,41.69712975,-93.110359,730.42,1.0372420766285175,Iowa,Jasper
19101,41.087811428571435,-91.93191557142858,435.51,0.2919625109447641,Iowa,Jefferson
19103,41.587658375000004,-91.5746705,614.04,4.737268157351556,Iowa,Johnson
19105,42.108865,-91.13139957142857,575.621,1.0422143033931603,Iowa,Jones
19107,41.36111671428572,-92.22904357142856,579.179,0.2509063808026254,Iowa,Keokuk
19109,43.35871418749999,-94.24946137500001,972.72,0.4365991139181921,Iowa,Kossuth
19111,40.569896666666665,-91.39268227777778,517.518,0.9210841861386644,Iowa,Lee
19113,42.07266499999999,-91.5314812857143,716.88,6.578626590526337,Iowa,Linn
19115,41.19716777777778,-91.16856016666667,401.766,0.4148242315815489,Iowa,Louisa
19117,41.04865028571429,-93.32772485714285,430.593,0.16769506061517084,Iowa,Lucas
19119,43.40334230303031,-96.43356572727272,587.65,0.45168368511772117,Iowa,Lyon
19121,41.288546,-94.0143105,561.006,0.32320089294746135,Iowa,Madison
19123,41.359956,-92.69024428571427,570.863,0.6177411280708633,Iowa,Mahaska
19125,41.33023225,-93.185211,554.534,0.9307847155470366,Iowa,Marion
19127,42.03595833333333,-92.96078583333333,572.501,1.7190667476806625,Iowa,Marshall
19129,40.99838681818182,-95.75888627272725,437.437,0.431371945152207,Iowa,Mills
19131,43.45176811764707,-92.77896335294118,469.133,0.3251671029030816,Iowa,Mitchell
19133,42.00514654545455,-96.16675404545454,694.072,0.193430736323549,Iowa,Monona
19135,41.04876742857142,-92.90193285714285,433.715,0.21359357986558167,Iowa,Monroe
19137,41.085373,-95.12327314285713,424.097,0.19569398948920402,Iowa,Montgomery
19139,41.45802585714286,-91.07513907142858,437.469,1.3154500203235284,Iowa,Muscatine
19141,43.1174004,-95.5771258,573.035,0.63104852404178,Iowa,O'Brien
19143,43.47585409999999,-95.55313085,398.684,0.24926555451112956,Iowa,Osceola
19145,40.60098007142857,-95.1550417857143,534.942,0.545648208243036,Iowa,Page
19147,43.08205883333333,-94.59999616666666,563.844,0.28708449683087517,Iowa,Palo Alto
19149,42.75419619999999,-96.50091064999998,862.893,1.3430239707626024,Iowa,Plymouth
19151,42.70454216666667,-94.60008649999999,577.241,0.256600933464093,Iowa,Pocahontas
19153,41.618792181818186,-93.503768,573.795,15.904586886884061,Iowa,Polk
19155,41.291637458333334,-95.81780766666667,950.28,2.6618331126103385,Iowa,Pottawattamie
19157,41.627179000000005,-92.47127566666666,584.932,0.4712627726432018,Iowa,Poweshiek
19159,40.60310238095239,-94.24784761904762,535.498,0.08176086990587901,Iowa,Ringgold
19161,42.421107899999996,-95.0970731,575.012,0.3789879336617451,Iowa,Sac
19163,41.59066083333333,-90.5933801111111,458.089,4.826152325294678,Iowa,Scott
19165,41.6156411,-95.2573601,590.779,0.36017488675786463,Iowa,Shelby
19167,43.103837750000004,-96.41721675000001,768.332,1.8502450942019268,Iowa,Sioux
19169,42.01134614285714,-93.41469085714286,572.818,3.2087336366155537,Iowa,Story
19171,42.09846842857143,-92.53288314285716,721.011,0.7673969987535216,Iowa,Tama
19173,40.600657869565225,-94.6782312173913,531.902,0.21091340645503412,Iowa,Taylor
19175,41.070854833333335,-94.24227466666666,423.645,0.30076382996843676,Iowa,Union
19177,40.64914716,-91.93173236000001,484.789,0.16865841295097186,Iowa,Van Buren
19179,41.07440833333334,-92.40982733333334,431.833,1.2334870738733041,Iowa,Wapello
19181,41.30757285714286,-93.504829,569.827,1.2283046242315048,Iowa,Warren
19183,41.30775711111111,-91.69485633333332,568.835,0.6293388696836251,Iowa,Washington
19185,40.61610855555556,-93.39480294444444,525.437,0.15199389991635465,Iowa,Wayne
19187,42.4540183,-94.2095594,715.619,1.6535592021663863,Iowa,Webster
19189,43.47384089473684,-93.69768942105263,400.489,0.42641516021479564,Iowa,Winnebago
19191,43.46752811764706,-91.73769388235296,689.868,0.4260698710169985,Iowa,Winneshiek
19193,42.404800657142864,-96.28900854285715,872.834,5.304987817482703,Iowa,Woodbury
19195,43.4669604,-93.29374206666667,400.123,0.1511059991720073,Iowa,Worth
19197,42.72034542857142,-93.76915528571429,580.422,0.5855818927575638,Iowa,Wright
20001,37.854729400000004,-95.2597018,500.303,0.1481780181754319,Kansas,Allen
20003,38.178877799999995,-95.337995,579.646,0.18426317986626906,Kansas,Anderson
20005,39.55448507692308,-95.18652476923079,431.172,0.42475273545174674,Kansas,Atchison
20007,37.12314981481482,-98.70061133333333,1134.073,0.0874898806629587,Kansas,Barber
20009,38.49341233333333,-98.71362922222222,895.4,0.714029094081583,Kansas,Barton
20011,37.861716303030306,-94.65844857575759,635.471,0.2307119983154129,Kansas,Bourbon
20013,39.8496722,-95.63459259999999,570.872,0.26802076917243906,Kansas,Brown
20015,37.86374022222222,-96.76886677777777,1429.863,1.3775001132873874,Kansas,Butler
20017,38.31483037500001,-96.553005375,773.06,0.07348485644205839,Kansas,Chase
20019,37.03088021052631,-96.1999622631579,638.881,0.025727452705914398,Kansas,Chautauqua
20021,37.10181739583333,-94.720158875,587.568,0.5528534738456975,Kansas,Cherokee
20023,39.88521056521739,-101.80102495652176,1019.887,0.10348514825462085,Kansas,Cheyenne
20025,37.13521315789474,-99.7893687894737,974.632,0.05202342329593769,Kansas,Clark
20027,39.32788825,-97.165368,645.301,0.16859875036981456,Kansas,Clay
20029,39.51929258333333,-97.60235833333333,715.342,0.23307447829341857,Kansas,Cloud
20031,38.27737328571429,-95.70171742857144,626.947,0.14598058205811645,Kansas,Coffey
20033,37.063506555555556,-99.29798094444443,788.298,0.017740659399360783,Kansas,Comanche
20035,37.04246606896551,-96.87034210344827,1125.75,0.5896649433056719,Kansas,Cowley
20037,37.48826831428571,-94.6704572857143,589.756,1.1200045948517365,Kansas,Crawford
20039,39.963433558823525,-100.45519223529409,893.517,0.10621977738659899,Kansas,Decatur
20041,38.891667545454546,-97.09477863636363,847.072,0.3407506033378705,Kansas,Dickinson
20043,39.84601186206897,-95.07948737931032,393.405,0.19390973842025788,Kansas,Doniphan
20045,38.89149745454546,-95.2604080909091,455.871,2.25554975145661,Kansas,Douglas
20047,37.903879636363634,-99.27737163636363,621.894,0.06870797342764105,Kansas,Edwards
20049,37.442355,-96.244153125,644.265,0.01828540524297061,Kansas,Elk
20051,38.883552,-99.35733171428569,899.912,1.0735465291996673,Kansas,Ellis
20053,38.6640005,-98.27366749999999,715.847,0.28193598085721683,Kansas,Ellsworth
20055,38.062066300000005,-100.6226243,1301.967,2.2721744386645586,Kansas,Finney
20057,37.597830249999994,-99.99305250000002,1098.271,2.421208123989592,Kansas,Ford
20059,38.520914,-95.35797383333335,571.756,0.49545003573137547,Kansas,Franklin
20061,39.06210542857143,-96.80238085714286,384.618,0.43800974212450583,Kansas,Geary
20063,38.98808466666666,-100.46917516666667,1071.665,0.14442619849215954,Kansas,Gove
20065,39.29539749999999,-99.88459775000001,898.522,0.05876781388863438,Kansas,Graham
20067,37.5274312,-101.35160060000001,574.8,0.3471921451387403,Kansas,Grant
20069,37.803962375,-100.38502937500002,868.867,0.1780998973967015,Kansas,Gray
20071,38.531868318181814,-101.97988813636366,778.45,0.03965545832271579,Kansas,Greeley
20073,37.938373090909096,-96.23720981818182,1143.3,0.0961609992752377,Kansas,Greenwood
20075,38.00173194117647,-101.84125770588234,996.508,0.05062738335554852,Kansas,Hamilton
20077,37.070821,-98.0925649375,801.269,0.13373266305233034,Kansas,Harper
20079,38.04931542857143,-97.41943014285714,539.754,0.7642093755079414,Kansas,Harvey
20081,37.54955171428571,-100.836728,577.521,0.12485171056009747,Kansas,Haskell
20083,38.120503875,-99.900267,859.992,0.06207134404278089,Kansas,Hodgeman
20085,39.48462522222223,-95.75019466666667,656.217,0.2910386494168084,Kansas,Jackson
20087,39.189244,-95.42055277777779,532.574,0.2891755922224829,Kansas,Jefferson
20089,39.90537446153846,-98.20723153846153,909.781,0.023351235826156405,Kansas,Jewell
20091,38.87282308695653,-94.69127195652175,473.375,12.609874849947666,Kansas,Johnson
20093,38.023095,-101.322074375,870.543,0.12977871664981047,Kansas,Kearny
20095,37.50158155555555,-98.08687533333332,863.363,0.1373308157719782,Kansas,Kingman
20097,37.50325245454545,-99.30701090909092,722.639,0.05959165537075369,Kansas,Kiowa
20099,37.08744265,-95.28372965,645.295,0.3694933424013135,Kansas,Labette
20101,38.409673,-100.46607750000003,717.455,0.029401547413796546,Kansas,Lane
20103,39.2488185,-94.96537325,462.831,1.8602635054945158,Kansas,Leavenworth
20105,39.080407533333336,-98.26479180000001,719.396,0.020739031075415137,Kansas,Lincoln
20107,38.229452551724144,-94.64482131034481,594.059,0.12212330992882318,Kansas,Linn
20109,38.948175428571425,-101.13215542857142,1072.994,0.1066754970563604,Kansas,Logan
20111,38.42145057142857,-96.18228785714284,847.474,1.0768923764173386,Kansas,Lyon
20113,38.348128714285714,-97.73411971428573,898.274,0.5217568640196866,Kansas,McPherson
20115,38.3916834,-97.0754228,944.29,0.18925107895253343,Kansas,Marion
20117,39.930578999999994,-96.4980616666667,900.183,0.15466468642362644,Kansas,Marshall
20119,37.18312154545454,-100.33861213636364,978.088,0.1317521782377128,Kansas,Meade
20121,38.54516550000001,-94.65703624999999,575.661,0.45503419889729646,Kansas,Miami
20123,39.378783625000004,-98.06967412499998,701.792,0.06904871167677404,Kansas,Mitchell
20125,37.063257393939395,-95.7387724242424,643.527,0.5203634262520094,Kansas,Montgomery
20127,38.709249416666665,-96.65971558333332,695.279,0.07453964924195412,Kansas,Morris
20129,37.113205888888885,-101.94599800000002,729.731,0.06254240824369646,Kansas,Morton
20131,39.90919803846154,-96.06479184615388,717.427,0.4156179536247054,Kansas,Nemaha
20133,37.56658271428571,-95.27492628571429,571.472,0.29183799539801536,Kansas,Neosho
20135,38.46520311111111,-99.86768566666666,1074.75,0.11803413433665463,Kansas,Ness
20137,39.947238791666656,-99.86664129166667,878.134,0.5822290317405331,Kansas,Norton
20139,38.657425,-95.670228375,705.518,0.1862855394239937,Kansas,Osage
20141,39.29264307142858,-98.64953321428571,892.504,0.02894514707632674,Kansas,Osborne
20143,39.19665522222222,-97.74297966666666,720.733,0.09509361269843523,Kansas,Ottawa
20145,38.18180475,-99.23624000000001,754.263,0.29201245836995937,Kansas,Pawnee
20147,39.95545235714286,-99.31811985714288,885.877,0.18228530970438844,Kansas,Phillips
20149,39.332714533333345,-96.31221013333334,841.022,0.32195742852532094,Kansas,Pottawatomie
20151,37.713240125000006,-98.67229325000001,735.045,0.21821271270249554,Kansas,Pratt
20153,39.95023160000001,-101.15567244,1069.416,0.09080863229830133,Kansas,Rawlins
20155,37.9106701,-98.11794719999999,1255.346,2.010320913168292,Kansas,Reno
20157,39.97299412499999,-97.67408237500001,717.371,0.09505338265938364,Kansas,Republic
20159,38.36228283333333,-98.29329899999999,726.237,0.14827458596058263,Kansas,Rice
20161,39.230330764705876,-96.6818795882353,609.771,1.6793043242076455,Kansas,Riley
20163,39.295763125,-99.39287125,890.533,0.13087301289685596,Kansas,Rooks
20165,38.58072666666667,-99.3104955,717.763,0.08322362191196742,Kansas,Rush
20167,38.882060375,-98.76134775000001,886.26,0.19936177451296927,Kansas,Russell
20169,38.8307585,-97.788967375,720.225,0.961771920128473,Kansas,Saline
20171,38.4286665,-100.9202125,717.544,0.15879229157200955,Kansas,Scott
20173,37.673840142857145,-97.5899272857143,997.512,11.577260793120164,Kansas,Sedgwick
20175,37.05184686363637,-100.85072204545455,639.497,1.4513428620523396,Kansas,Seward
20177,39.06395388888888,-95.739493,544.016,3.21764564102532,Kansas,Shawnee
20179,39.4226145,-100.44465666666667,895.957,0.15745168080616548,Kansas,Sheridan
20181,39.394819999999996,-101.8500240625,1056.066,0.2033258191387349,Kansas,Sherman
20183,39.95410444444445,-98.76096033333334,895.465,0.04355643206536436,Kansas,Smith
20185,37.99944555555555,-98.75343877777777,792.046,0.08884414906296201,Kansas,Stafford
20187,37.54647331818182,-101.92760300000003,680.345,0.07042577926332305,Kansas,Stanton
20189,37.133545549999994,-101.37405720000002,727.293,0.19997750178726714,Kansas,Stevens
20191,37.08690908,-97.58184492000001,1181.941,0.32079413540879337,Kansas,Sumner
20193,39.32677533333334,-100.89396955555554,1074.687,0.31622298920408165,Kansas,Thomas
20195,38.94568942857143,-99.75558000000001,889.478,0.08980040880592512,Kansas,Trego
20197,38.97722686666667,-96.26042593333334,794.302,0.12274129631761334,Kansas,Wabaunsee
20199,38.85128264285715,-101.89679107142857,913.652,0.0683479019068357,Kansas,Wallace
20201,39.90426956666666,-97.14588316666668,894.756,0.12242977777460619,Kansas,Washington
20203,38.45747433333333,-101.45598322222222,718.568,0.053536515883044214,Kansas,Wichita
20205,37.53801250000001,-95.81602450000001,570.418,0.1234379121552371,Kansas,Wilson
20207,37.864839499999995,-95.81397016666665,497.82,0.02948326965151363,Kansas,Woodson
20209,39.12794668421052,-94.69117110526315,151.6,5.948202837496678,Kansas,Wyandotte
21001,37.14862418181818,-85.26316563636364,405.283,0.34653012554083384,Kentucky,Adair
21003,36.664744631578955,-86.15764784210528,344.338,0.3790402078774616,Kentucky,Allen
21005,37.98498122222222,-85.02536977777778,201.832,0.24177803815839213,Kentucky,Anderson
21007,37.07073657894737,-89.08157215789474,246.659,0.07305153491015046,Kentucky,Ballard
21009,37.01767111111111,-85.98791066666666,487.541,0.9669648013312739,Kentucky,Barren
21011,38.06370853333333,-83.73191386666666,278.792,0.12374969560690895,Kentucky,Bath
21013,36.77924641666666,-83.60145116666665,359.0,0.6287089198075007,Kentucky,Bell
21015,39.00656237931034,-84.75322310344826,246.359,1.9805973067588558,Kentucky,Boone
21017,38.228306700000005,-84.24241090000001,289.719,0.2643943806024761,Kentucky,Bourbon
21019,38.35048470588235,-82.63489300000002,159.864,0.6474866126937342,Kentucky,Boyd
21021,37.619262875000004,-84.850598125,180.169,0.41414998224838956,Kentucky,Boyle
21023,38.73593611764706,-84.07941323529411,205.612,0.0691154562726951,Kentucky,Bracken
21025,37.50237926666667,-83.26540593333333,492.413,0.13397322205067558,Kentucky,Breathitt
21027,37.8205847368421,-86.50818105263158,567.172,0.20189272705158826,Kentucky,Breckinridge
21029,38.00243638461539,-85.69240376923076,297.024,1.3067539217059554,Kentucky,Bullitt
21031,37.23378478571429,-86.68951749999998,426.088,0.28539633038055257,Kentucky,Butler
21033,37.2310986,-87.850639,344.791,0.2486704261116423,Kentucky,Caldwell
21035,36.57238377272727,-88.20458413636364,385.021,0.7904305210606543,Kentucky,Calloway
21037,38.990474333333346,-84.38246886666667,151.308,1.3215924408403699,Kentucky,Campbell
21039,36.86988053846154,-89.05099592307693,189.434,0.08943648192055122,Kentucky,Carlisle
21041,38.69501831578948,-85.16762647368421,128.569,0.1748473641573658,Kentucky,Carroll
21043,38.31999413333334,-83.0945838,409.496,0.31352699302496984,Kentucky,Carter
21045,37.29733876923078,-84.94066815384616,444.23,0.22889284680267447,Kentucky,Casey
21047,36.79759247368421,-87.50798257894738,717.503,1.4266531582416995,Kentucky,Christian
21049,37.957260624999996,-84.14268012500001,252.463,0.43056313619172704,Kentucky,Clark
21051,37.1510565,-83.64130864285717,469.247,0.4689494469807412,Kentucky,Clay
21053,36.69938625,-85.13578841666667,197.246,0.18662566684427473,Kentucky,Clinton
21055,37.39803138888888,-88.10322594444445,359.952,0.12027042963461465,Kentucky,Crittenden
21057,36.81774755555555,-85.3556688888889,305.182,0.1092395339943736,Kentucky,Cumberland
21059,37.80365546666667,-87.10518346666665,458.346,1.5811513622197946,Kentucky,Daviess
21061,37.182921900000004,-86.22887180000001,302.883,0.14506849102335354,Kentucky,Edmonson
21063,38.13792877777778,-83.07501066666667,234.315,0.2712447049685014,Kentucky,Elliott
21065,37.673616333333335,-83.93350055555555,253.078,0.22706432514728958,Kentucky,Estill
21067,38.049378,-84.48062136363636,283.649,8.174773958271635,Kentucky,Fayette
21069,38.33968557142857,-83.7187417142857,348.542,0.15088161149641044,Kentucky,Fleming
21071,37.51452023076923,-82.74992184615384,393.345,0.48869292114709906,Kentucky,Floyd
21073,38.264989777777785,-84.82589966666667,207.747,0.7002006557545838,Kentucky,Franklin
21075,730.817625,-1790.2578560000002,205.504,0.15960270884215544,Kentucky,Fulton
21077,38.770524615384616,-84.86097253846154,101.234,0.11449255605958851,Kentucky,Gallatin
21079,37.68393236363636,-84.58859827272727,230.077,0.26363539099879,Kentucky,Garrard
21081,38.690222857142864,-84.63025621428572,257.965,0.2781930611540773,Kentucky,Grant
21083,36.57991644444444,-88.61017383333333,551.743,0.7465224784756392,Kentucky,Graves
21085,37.4559782,-86.33583186666667,496.698,0.437686908327988,Kentucky,Grayson
21087,37.28992636363636,-85.56697718181817,286.034,0.23802353321620234,Kentucky,Green
21089,38.63320041666666,-82.88089855555556,344.397,0.549736805302058,Kentucky,Greenup
21091,37.8950544,-86.78043648,187.652,0.14239370745188956,Kentucky,Hancock
21093,37.77319911111111,-85.96004238888888,623.278,1.8140067535106872,Kentucky,Hardin
21095,36.894637836363636,-83.04360769090907,465.828,0.4457630735256919,Kentucky,Harlan
21097,38.415966000000004,-84.33146664285712,306.364,0.21064204036489984,Kentucky,Harrison
21099,37.30512326666666,-85.92285160000002,412.086,0.37110800845615194,Kentucky,Hart
21101,37.873709934426216,-87.62230470491805,436.669,1.0113424400611664,Kentucky,Henderson
21103,38.44618972727273,-85.06775736363637,286.276,0.23965850193702742,Kentucky,Henry
21105,36.645731210526314,-89.02081642105263,242.274,0.08009907279840572,Kentucky,Hickman
21107,37.31326407692308,-87.55316599999999,541.995,0.8425083512150717,Kentucky,Hopkins
21109,37.47034461538462,-83.94408238461538,345.201,0.3419755782314836,Kentucky,Jackson
21111,38.180294268292684,-85.76444456097562,380.416,17.283000421272835,Kentucky,Jefferson
21113,37.843056357142856,-84.64562692857143,172.116,0.8375239991797677,Kentucky,Jessamine
21115,37.82930211111111,-82.83449644444444,261.953,0.34744155455692494,Kentucky,Johnson
21117,38.95468613333334,-84.53197113333334,160.25,2.5544740782372335,Kentucky,Kenton
21119,37.37560314285714,-82.90322828571428,351.518,0.2739421876849053,Kentucky,Knott
21121,36.885794,-83.83827289999999,386.297,0.6158682327164262,Kentucky,Knox
21123,37.54271280000001,-85.6414368,261.519,0.25789935937660247,Kentucky,Larue
21125,37.07459484615384,-84.13513615384615,433.953,1.1840607594592198,Kentucky,Laurel
21127,38.042541769230766,-82.65296773076922,415.595,0.15652762502285425,Kentucky,Lawrence
21129,37.577819266666665,-83.76488173333334,208.857,0.20781141474745798,Kentucky,Lee
21131,37.062886999999996,-83.42785781250001,400.844,0.10434475780046656,Kentucky,Leslie
21133,37.041327675000005,-82.83822282499997,337.914,0.24890487620720125,Kentucky,Letcher
21135,38.596192206896546,-83.38492413793104,482.836,0.248189660676577,Kentucky,Lewis
21137,37.41163090909091,-84.67303327272727,334.095,0.28506136223026596,Kentucky,Lincoln
21139,37.18530858064516,-88.43173770967744,313.127,0.1207869000193674,Kentucky,Livingston
21141,36.79165347058824,-86.842833,552.131,0.5686580886687652,Kentucky,Logan
21143,37.06357122222223,-88.12692255555555,213.84,0.09591319142863526,Kentucky,Lyon
21145,37.094727125,-88.732067625,248.744,1.1165839500411914,Kentucky,McCracken
21147,36.772888461538464,-84.4117666923077,426.803,0.18856117976378275,Kentucky,McCreary
21149,37.56549585714286,-87.27493435714287,252.474,0.18428643588828428,Kentucky,McLean
21151,37.691123125000004,-84.2955695,437.293,1.7102969169354814,Kentucky,Madison
21153,37.615859736842104,-83.05006231578946,308.444,0.18666123458237505,Kentucky,Magoffin
21155,37.54610984615385,-85.26513761538462,343.008,0.41390716579926884,Kentucky,Marion
21157,36.90298377777778,-88.36642799999998,301.253,0.4224911135493584,Kentucky,Marshall
21159,37.83286046666667,-82.48591900000001,229.605,0.19502528276584025,Kentucky,Martin
21161,38.64116110526316,-83.77370763157893,240.128,0.17453496591482753,Kentucky,Mason
21163,38.035728500000005,-86.28048973333331,305.423,0.33434954247906074,Kentucky,Meade
21165,37.99229596153846,-83.69547330769231,203.585,0.0701487017040754,Kentucky,Menifee
21167,37.84147299999999,-84.7959651875,248.797,0.30841579565482546,Kentucky,Mercer
21169,37.058230333333334,-85.65170400000001,289.645,0.18459757146152364,Kentucky,Metcalfe
21171,36.66310633333334,-85.68121099999998,329.373,0.3409789830901324,Kentucky,Monroe
21173,38.06928,-83.932913,197.366,0.45142683691064117,Kentucky,Montgomery
21175,37.93135291666666,-83.17381816666666,381.127,0.12975293069548618,Kentucky,Morgan
21177,37.18831841666667,-87.12432483333335,467.079,0.6665279042726477,Kentucky,Muhlenberg
21179,37.79414642857142,-85.45143542857144,417.512,0.9371455620602741,Kentucky,Nelson
21181,38.346286,-84.00662887499999,195.171,0.09010147857061744,Kentucky,Nicholas
21183,37.490369375,-86.8187864375,587.274,0.4503825321652676,Kentucky,Ohio
21185,38.41215557142857,-85.47641335714286,187.218,1.103805054749559,Kentucky,Oldham
21187,38.49992436363636,-84.84746518181818,351.103,0.09611333608455319,Kentucky,Owen
21189,37.40071911111111,-83.66272855555556,197.407,0.07345868329155626,Kentucky,Owsley
21191,38.7790028,-84.3212182,277.157,0.14078693046717589,Kentucky,Pendleton
21193,37.17381656,-83.24673148000002,339.67,0.4542427310443805,Kentucky,Perry
21195,37.4741176969697,-82.35839845454545,786.833,0.8385658004676864,Kentucky,Pike
21197,37.79343377777778,-83.793195,178.979,0.1599099691941616,Kentucky,Powell
21199,37.121761,-84.66253107142859,658.408,0.7199409459532644,Kentucky,Pulaski
21201,38.499117,-84.031297,99.911,0.03666849719146007,Kentucky,Robertson
21203,37.37656611111112,-84.33944300000002,316.545,0.2678207683954859,Kentucky,Rockcastle
21205,38.1809867,-83.41175369999999,279.795,0.33841833321549364,Kentucky,Rowan
21207,36.99964991666667,-85.06621416666667,253.657,0.27740131343968377,Kentucky,Russell
21209,38.29367493333333,-84.58446933333333,281.766,0.8563057067064468,Kentucky,Scott
21211,38.210342000000004,-85.2684178,379.636,1.0885112483108785,Kentucky,Shelby
21213,36.70114970588235,-86.54831811764706,234.204,0.29498088867266453,Kentucky,Simpson
21215,38.035699375,-85.341630625,186.677,0.28652993434856944,Kentucky,Spencer
21217,37.392408833333334,-85.35363166666666,266.327,0.4093266886151784,Kentucky,Taylor
21219,36.73809823076923,-87.19797553846153,374.496,0.2097884425165637,Kentucky,Todd
21221,36.76515524999999,-87.89966233333332,441.433,0.19173373287336729,Kentucky,Trigg
21223,38.619203625000004,-85.38321875,151.648,0.08867881767508114,Kentucky,Trimble
21225,37.713714113636364,-88.00788718181816,342.849,0.36529679684192495,Kentucky,Union
21227,36.999994083333334,-86.40606008333334,541.6,3.649485303466842,Kentucky,Warren
21229,37.7550741,-85.19725940000001,297.266,0.22197430409386917,Kentucky,Washington
21231,36.74752686666667,-84.80092246666666,458.17,0.2353803511408835,Kentucky,Wayne
21233,37.45288342857143,-87.73859264285716,331.943,0.2696656746958083,Kentucky,Webster
21235,36.70903538461538,-84.07461738461538,437.83,0.7066816012050221,Kentucky,Whitley
21237,37.7210803,-83.44958040000002,222.171,0.08048466168932746,Kentucky,Wolfe
21239,38.03828933333333,-84.72032722222224,188.784,0.34525171155834594,Kentucky,Woodford
22001,30.278091999999997,-92.43776799999999,655.119,2.0614977977244324,Louisiana,Acadia
22003,30.62140892307692,-92.84663215384617,761.847,1.1289564690854672,Louisiana,Allen
22005,30.184892166666668,-90.86960733333335,289.981,2.8606042275835666,Louisiana,Ascension
22007,29.891096333333337,-91.1122768,338.658,0.5241293452277589,Louisiana,Assumption
22009,31.1037772,-91.99226246666669,832.434,1.0958855220188286,Louisiana,Avoyelles
22011,30.59631337500001,-93.46658812499999,1157.342,0.6948670192931637,Louisiana,Beauregard
22013,32.338667,-93.08992500000001,811.268,0.3952810654055475,Louisiana,Bienville
22015,32.6393846923077,-93.6264308846154,840.057,2.9181683444962587,Louisiana,Bossier
22017,32.62198077142857,-93.96497984285718,878.539,6.669716563564868,Louisiana,Caddo
22019,30.246593807692307,-93.48849815384614,1063.659,5.256296000814507,Louisiana,Calcasieu
22021,32.06994250000001,-92.09578110000001,529.425,0.25638285684178774,Louisiana,Caldwell
22023,29.80788,-93.37254117073172,1284.887,0.1498262240915463,Louisiana,Cameron
22025,31.609973807692306,-91.8005898076923,708.03,0.2862241706422573,Louisiana,Catahoula
22027,32.92400280769231,-92.97178976923077,754.878,0.3888651021698646,Louisiana,Claiborne
22029,31.41909142666666,-91.55785522666666,696.92,0.41967427429271814,Louisiana,Concordia
22031,32.05751476000001,-93.82987116,875.579,0.6598528298956716,Louisiana,De Soto
22033,30.45540311764706,-91.09590382352941,455.374,10.281909890557866,Louisiana,East Baton Rouge
22035,32.78536559999999,-91.15153843333331,420.704,0.3687150858145519,Louisiana,East Carroll
22037,30.83811945,-91.1212039,453.41,1.0733209568369697,Louisiana,East Feliciana
22039,30.616427,-92.50799025000002,662.378,0.922930443230515,Louisiana,Evangeline
22041,32.105667266666664,-91.65830486666665,624.585,0.8652270865319888,Louisiana,Franklin
22043,31.609162400000006,-92.5873564,643.026,0.34340041234827445,Louisiana,Grant
22045,1832.8944279999996,-5695.778473000001,574.111,1.9164971902258272,Louisiana,Iberia
22047,30.271695842105267,-91.32769915789474,618.627,0.9536014863424808,Louisiana,Iberville
22049,32.33744363636364,-92.5172181818182,569.183,0.5564016055916702,Louisiana,Jackson
22051,29.800294323529414,-90.13238026470589,295.632,11.86383923763402,Louisiana,Jefferson
22053,30.340490192307698,-92.78504123076922,651.328,0.8628829628006016,Louisiana,Jefferson Davis
22055,30.170967769230774,-92.04270776923077,268.72,6.160339357711991,Louisiana,Lafayette
22057,29.299998161016955,-90.21646093220339,1068.214,2.389587899512339,Louisiana,Lafourche
22059,31.606142545454542,-92.22481845454546,624.684,0.3420830249145735,Louisiana,LaSalle
22061,32.59316461538462,-92.62195769230769,471.742,1.1155642781340234,Louisiana,Lincoln
22063,30.366120923076917,-90.70905823076922,648.169,2.752712897107574,Louisiana,Livingston
22065,32.38184552941176,-91.1012021764706,624.437,0.5433161102492186,Louisiana,Madison
22067,32.85762680952381,-91.71790852380951,794.934,0.5908747077785103,Louisiana,Morehouse
22069,31.74744404545454,-93.14257672727273,1252.25,0.9864564791028161,Louisiana,Natchitoches
22071,30.06165550757575,-89.75992909848486,169.423,8.93402965074652,Louisiana,Orleans
22073,32.494659000000006,-92.17791133333333,610.406,4.747490439484954,Louisiana,Ouachita
22075,29.315867036866358,-89.44286377419355,779.911,0.5575102284758177,Louisiana,Plaquemines
22077,30.725469176470583,-91.56910782352941,557.346,0.7012931927961957,Louisiana,Pointe Coupee
22079,31.175027157894736,-92.541063,1317.962,3.0056605321098666,Louisiana,Rapides
22081,32.12501186666667,-93.39507806666667,389.09,0.3105384540805646,Louisiana,Red River
22083,32.43130641176471,-91.70990288235294,559.043,0.5978498446120035,Louisiana,Richland
22085,31.431411555555556,-93.61822749999999,866.659,0.6639182166197101,Louisiana,Sabine
22087,4271.894353000001,-12797.738893999995,377.517,0.984835315261668,Louisiana,St. Bernard
22089,29.920490470588234,-90.32316617647058,279.083,1.238872101841001,Louisiana,St. Charles
22091,30.934118523809524,-90.71215733333334,408.403,0.27038514480703,Louisiana,St. Helena
22093,30.015853666666665,-90.82902533333333,241.537,0.5358268196488969,Louisiana,St. James
22095,30.135745214285716,-90.53265028571431,213.071,1.079401549914487,Louisiana,St. John the Baptist
22097,30.528875941176466,-92.10164829411765,923.879,2.402034013785724,Louisiana,St. Landry
22099,268.599876,-821.550034,737.648,1.4194095718403816,Louisiana,St. Martin
22101,29.643281134328365,-91.53755458208958,555.379,1.264168315795907,Louisiana,St. Mary
22103,30.304553972972986,-89.71865624324323,845.551,4.895214075041269,Louisiana,St. Tammany
22105,30.803851304347823,-90.43154569565219,791.275,3.1380252145268797,Louisiana,Tangipahoa
22107,32.037755121951214,-91.20725580487805,602.784,0.11396127071918177,Louisiana,Tensas
22109,29.250238527950312,-90.86558642236021,1231.815,2.386237692558775,Louisiana,Terrebonne
22111,32.886260571428565,-92.43104352380952,876.988,0.7090634750630663,Louisiana,Union
22113,29.707909437500007,-92.18791789583332,1173.199,1.3385952975680615,Louisiana,Vermilion
22115,31.137065388888896,-93.33187366666668,1327.91,0.7061370218388646,Louisiana,Vernon
22117,30.94686317948718,-89.95816625641025,669.525,1.07818614969703,Louisiana,Washington
22119,32.81703276190477,-93.36687547619047,593.03,0.9615060905879789,Louisiana,Webster
22121,30.550463875000002,-91.309016,192.394,0.6660077435542371,Louisiana,West Baton Rouge
22123,32.91175421052631,-91.39007615789474,359.646,0.2540097980162062,Louisiana,West Carroll
22125,30.86113275,-91.41901037500001,403.214,0.4567629379150168,Louisiana,West Feliciana
22127,31.90040163636364,-92.650507,950.086,0.4462683540042285,Louisiana,Winn
23001,44.17540132142857,-70.16996882142857,467.927,0.7432012296740651,Maine,Androscoggin
23003,46.792554636363626,-68.53098554545456,6671.33,0.05960762637135458,Maine,Aroostook
23005,612.2914969999999,-981.6286979999999,835.241,1.9569201474107232,Maine,Cumberland
23007,45.1315195,-70.49277903846153,1696.609,0.08960441170029373,Maine,Franklin
23009,397.043807,-616.540293,1586.893,0.1042050795460054,Maine,Hancock
23011,44.40067219565217,-69.71576306521743,867.524,0.3680359512337117,Maine,Kennebec
23013,613.844959,-964.4938599999999,365.134,0.1253854334166959,Maine,Knox
23015,481.44807199999997,-762.421981,455.818,0.08026851908886021,Maine,Lincoln
23017,44.60952991071429,-70.77076085714286,2076.84,0.14482890539370685,Maine,Oxford
23019,45.23136965853658,-68.67077153658538,3397.362,0.2959217275513894,Maine,Penobscot
23021,45.64323634615384,-69.32860692307692,3960.856,0.0167820267040275,Maine,Piscataquis
23023,43.86113152272726,-69.83480613636364,253.695,0.10625886008231022,Maine,Sagadahoc
23025,45.56259341666666,-70.02942962499999,3924.403,0.1982130873268741,Maine,Somerset
23027,1284.6498970000002,-1998.5908989999996,729.918,0.12823976855183294,Maine,Waldo
23029,800.8305049999999,-1216.6901609999998,2562.66,0.08854008681985306,Maine,Washington
23031,43.371000475247534,-70.69179974257423,990.713,1.080901600900025,Maine,York
24001,39.57476109090909,-78.66491724242427,424.158,0.8684516201809456,Maryland,Allegany
24003,38.948465633858284,-76.50706201181103,414.902,8.440631712853477,Maryland,Anne Arundel
24005,39.30484738922155,-76.51614138323355,598.302,14.260150372532552,Maryland,Baltimore
24009,38.44468034482757,-76.54538935221672,213.152,0.9030414756528777,Maryland,Calvert
24011,38.85058281372549,-75.91371198039215,319.419,0.4961153536239884,Maryland,Caroline
24013,39.59076408333333,-76.98690587500002,447.595,1.6395649729718231,Maryland,Carroll
24015,39.399160210977705,-75.866149464837,346.273,0.9862918681665768,Maryland,Cecil
24017,38.44560791304346,-76.99378412648225,457.749,2.215726372404763,Maryland,Charles
24019,2595.1635710000005,-5172.003705999999,540.765,0.5431762881273177,Maryland,Dorchester
24021,39.396920068965514,-77.39758437931035,660.221,3.2998032145676865,Maryland,Frederick
24023,39.437512909090906,-79.3012984090909,647.103,0.15558346112857435,Maryland,Garrett
24025,39.42750203468211,-76.23552560115611,437.089,2.7499665694076816,Maryland,Harford
24027,39.21966804347827,-76.8815206521739,250.741,4.243614677951532,Maryland,Howard
24029,39.32939090030675,-75.92254933282213,277.03,0.23511619084720017,Maryland,Kent
24031,39.06919971929825,-77.19735224561401,491.254,17.21330843515631,Maryland,Montgomery
24033,38.77444449397591,-76.8247421807229,482.691,21.38382355672858,Maryland,Prince George's
24035,38.96649871764708,-76.24590104705887,371.908,0.5560628738399948,Maryland,Queen Anne's
24037,38.30281593675212,-76.54112571111116,357.18,1.0672539681560143,Maryland,St. Mary's
24039,1714.991316,-3421.2713409999997,319.723,0.3324732049208811,Maryland,Somerset
24041,38.770718809667684,-76.18198655287009,268.538,0.4422807943378759,Maryland,Talbot
