id,latitude,longitude,sizelol,indexlol,state,county
01001,32.5084383,-86.658643,594.436,0.07535832427977406,Alabama,Autauga
01003,30.52562655670103,-87.76329212371132,1589.784,0.2320296480885693,Alabama,Baldwin
01005,31.88918035999999,-85.25641615999999,884.876,0.03417997867364736,Alabama,Barbour
01007,33.0131535,-87.20104474999998,622.582,0.030150580177261393,Alabama,Bibb
01009,33.9504976,-86.6349681,644.776,0.07808834514052092,Alabama,Blount
01011,32.08248306666666,-85.69903819999999,622.805,0.020409035180968836,Alabama,Bullock
01013,31.69521438461538,-86.7164906923077,776.829,0.03298542203991519,Alabama,Butler
01015,33.806179884615375,-85.9161358846154,605.868,0.17168576014715303,Alabama,Calhoun
01017,32.89243790909091,-85.26448881818182,596.531,0.04767444668319931,Alabama,Chambers
01019,34.27875763157895,-85.52720405263157,553.7,0.027902330566830974,Alabama,Cherokee
01021,32.840318117647065,-86.69751829411766,692.854,0.06309688548435388,Alabama,Chilton
01023,32.02804385714286,-88.30402328571427,913.5,0.012491210572132126,Alabama,Choctaw
01025,31.63780403846154,-87.85492146153845,1238.465,0.04513391880070666,Alabama,Clarke
01027,33.329102647058825,-85.92895288235293,603.961,0.02565598412971956,Alabama,Clay
01029,33.643151045454545,-85.52805722727273,560.1,0.02060373569041362,Alabama,Cleburne
01031,31.417082555555552,-86.04892966666665,678.972,0.06618720916362067,Alabama,Coffee
01033,34.71231083333334,-87.87335958333334,592.619,0.08354849692823678,Alabama,Colbert
01035,31.471006461538465,-86.90311846153847,850.156,0.019511058030102932,Alabama,Conecuh
01037,32.90127092307692,-86.31562453846156,650.926,0.008317734839994966,Alabama,Coosa
01039,31.157500843749997,-86.44246059375001,1030.456,0.06148120994479895,Alabama,Covington
01041,31.681274315789473,-86.29868300000003,608.84,0.02049022436544288,Alabama,Crenshaw
01043,34.11937425,-86.874103875,734.841,0.11335830755080754,Alabama,Cullman
01045,31.431634399999997,-85.6185749,561.15,0.06641745426407461,Alabama,Dale
01047,32.33924464705882,-87.08253094117647,978.695,0.06226063386404851,Alabama,Dallas
01049,34.53472552631579,-85.68462752631581,777.093,0.12738769491725951,Alabama,DeKalb
01051,32.6310096,-86.2041584,618.485,0.11185022488123861,Alabama,Elmore
01053,31.01863098245614,-87.21236710526316,945.08,0.056741174047198806,Alabama,Escambia
01055,33.96547009523809,-86.06555980952382,534.991,0.16323716233133495,Alabama,Etowah
01057,33.70643961538462,-87.69439746153846,627.66,0.022710550821233105,Alabama,Fayette
01059,34.419070555555564,-87.96109866666666,633.821,0.0705789383859508,Alabama,Franklin
01061,31.0450213125,-85.8863949375,574.408,0.03391667390892305,Alabama,Geneva
01063,32.76978079166667,-87.907185125,647.11,0.01141672189379104,Alabama,Greene
01065,32.73509825,-87.62390549999999,643.943,0.026416123034225022,Alabama,Hale
01067,31.58417026315789,-85.14857094736843,561.75,0.02479640040958467,Alabama,Henry
01069,31.10980178125,-85.16131193749999,579.824,0.14559015881244555,Alabama,Houston
01071,34.65409476363636,-86.15689134545453,1077.868,0.08212169197828655,Alabama,Jackson
01073,33.43752929032257,-87.01059567741937,1111.276,0.8487784857898615,Alabama,Jefferson
01075,33.728285850000006,-88.2087918,604.846,0.017769765481301075,Alabama,Lamar
01077,34.96904936585367,-87.64502495121951,667.697,0.10230890443133848,Alabama,Lauderdale
01079,34.577068600000004,-87.269914,690.678,0.03292853262410864,Alabama,Lawrence
01081,32.579585120000004,-85.21278636000002,607.536,0.2199022979600388,Alabama,Lee
01083,34.919216142857145,-86.94644100000001,559.936,0.11250468845373182,Alabama,Limestone
01085,32.160739538461534,-86.71958099999999,715.911,0.022917425130400838,Alabama,Lowndes
01087,32.43613784615385,-85.73479576923077,608.885,0.019999928612788525,Alabama,Macon
01089,34.85592196153846,-86.55200634615386,801.593,0.34835664984817405,Alabama,Madison
01091,32.27716904166667,-87.77626904166665,976.882,0.03411034683780585,Alabama,Marengo
01093,34.122269,-87.99875463636363,742.292,0.03888940143004649,Alabama,Marion
01095,34.5490549074074,-86.26975249999997,565.842,0.16207539068749152,Alabama,Marshall
01097,30.248614083333333,-88.17948795833333,1229.435,0.5592699512320594,Alabama,Mobile
01099,31.559549000000004,-87.38024562500003,1025.675,0.022190925880524986,Alabama,Monroe
01101,32.22224606666667,-86.21964346666668,784.247,0.3515177595762469,Alabama,Montgomery
01103,34.47995,-86.9077929,579.337,0.16605658632426779,Alabama,Morgan
01105,32.60984053333333,-87.371721,719.664,0.019308479891051875,Alabama,Perry
01107,33.34060592307692,-88.13370392307692,881.408,0.03246035049852197,Alabama,Pickens
01109,31.8232211875,-85.89974918749999,672.094,0.045563823397014425,Alabama,Pike
01111,33.294293249999996,-85.45012787499999,580.55,0.029018577717371728,Alabama,Randolph
01113,32.30590124137932,-85.08579186206897,641.14,0.0636099951159166,Alabama,Russell
01115,33.71538216666667,-86.29593605555557,631.902,0.11391161187885993,Alabama,St. Clair
01117,33.2724365,-86.67813394444445,784.93,0.27518643344879884,Alabama,Shelby
01119,32.61708833333333,-88.17288942857142,903.887,0.016187998972738857,Alabama,Sumter
01121,33.376838695652175,-86.10652626086956,736.775,0.0965304914387615,Alabama,Talladega
01123,32.76941192307693,-85.80550461538463,716.521,0.04879459314588161,Alabama,Tallapoosa
01125,33.30181,-87.3276918387097,1321.755,0.35689407798580197,Alabama,Tuscaloosa
01127,33.76012924999999,-87.26654175,791.192,0.09976390551346692,Alabama,Walker
01129,31.407104807692306,-88.23930149999998,1080.207,0.026399518577586295,Alabama,Washington
01131,32.01594952941177,-87.32937788235293,888.498,0.018281992366102045,Alabama,Wilcox
01133,34.17224342857143,-87.40117557142857,612.979,0.034650526975636954,Alabama,Winston
02020,61.10252234375,-149.53622721874996,1704.683,0.3836481548427325,Alaska,Anchorage
02230,59.530239,-135.17583642857144,452.325,0.00024633512224086997,Alaska,Skagway
04001,35.61268717777778,-109.36786086666669,11197.521,0.13096972584252625,Arizona,Apache
04003,31.916588789473682,-109.30352236842104,6165.69,0.08145447069846817,Arizona,Cochise
04005,35.63235677419355,-112.21675266129033,18618.885,0.19073465347633606,Arizona,Coconino
04007,33.86470235,-111.01687024999998,4757.933,0.07077935794889517,Arizona,Gila
04009,33.02697665,-109.99040489999997,4622.597,0.05099343536090321,Arizona,Graham
04011,33.02742307692308,-109.1091381923077,1843.126,0.003968675125782836,Arizona,Greenlee
04012,33.67176421428573,-114.33381301428574,4499.629,0.020526725605417656,Arizona,La Paz
04013,33.59358934285714,-112.03549742857142,9200.143,5.295779186144934,Arizona,Maricopa
04015,35.775288464285715,-114.05713677678577,13311.084,0.15308829608758284,Arizona,Mohave
04017,35.238300125,-110.16894224999997,9950.422,0.21350808514194664,Arizona,Navajo
04019,32.099921625,-111.50565708333336,9187.036,0.9916255173124431,Arizona,Pima
04021,32.976616538461535,-111.22983130769232,5365.612,0.4119611055636108,Arizona,Pinal
04023,31.518986666666667,-111.02460624999999,1236.916,0.09937539823703354,Arizona,Santa Cruz
04025,34.69495217948718,-112.44887407692305,8123.499,0.1099202503999973,Arizona,Yavapai
04027,32.79904963636364,-114.37187345454547,5513.992,0.4630940405104407,Arizona,Yuma
05001,34.23330640909091,-91.36780768181819,988.77,0.025470047563409693,Arkansas,Arkansas
05003,33.087625111111116,-91.76870966666667,925.349,0.020969714854398004,Arkansas,Ashley
05005,36.29247873913043,-92.3221412173913,554.283,0.03414650254768784,Arkansas,Baxter
05007,36.33657009302326,-94.37275223255816,847.357,0.3162418946177553,Arkansas,Benton
05009,36.37896856249999,-93.0520264375,590.231,0.04232508348904238,Arkansas,Boone
05011,33.43668023076923,-92.13537976923075,649.231,0.012126955134435957,Arkansas,Bradley
05013,33.5252069375,-92.52926325,628.581,0.0034125500142819366,Arkansas,Calhoun
05015,36.40509951999999,-93.56958744000002,630.087,0.035821860203176306,Arkansas,Carroll
05017,33.24511593939394,-91.26132921212117,644.304,0.03302090927603387,Arkansas,Chicot
05019,34.11577090000001,-93.20670565,866.074,0.020923361196143922,Arkansas,Clark
05021,36.43330684615383,-90.41784812820512,639.465,0.020929150180435504,Arkansas,Clay
05023,35.5344648,-91.93608379999999,553.692,0.018558822292030108,Arkansas,Cleburne
05025,33.930825500000005,-92.20159591666668,597.783,0.009317625375062815,Arkansas,Cleveland
05027,33.10781443478261,-93.24042269565219,766.053,0.026657028803728028,Arkansas,Columbia
05029,35.22497250000001,-92.73987949999999,552.25,0.015843558466282645,Arkansas,Conway
05031,35.923670416666674,-90.53245558333334,707.206,0.18289958168160136,Arkansas,Craighead
05033,35.588186285714286,-94.2781488095238,593.094,0.08139032913843516,Arkansas,Crawford
05035,35.19919011764706,-90.19314168627454,609.76,0.08781102401740536,Arkansas,Crittenden
05037,35.31455966666666,-90.861148,616.381,0.020814533537919993,Arkansas,Cross
05039,33.99546866666667,-92.63014673333333,667.386,0.007204581795508457,Arkansas,Dallas
05041,33.808128085106404,-91.15475857446808,768.152,0.014643680699108215,Arkansas,Desha
05043,33.63333036363636,-91.77129799999999,828.356,0.015965571679102786,Arkansas,Drew
05045,35.128428,-92.32006408333332,647.884,0.1258904587046889,Arkansas,Faulkner
05047,35.5048313125,-93.93349481250002,608.857,0.020372232447255622,Arkansas,Franklin
05049,36.465711153846144,-91.8228288974359,618.194,0.013524304791337255,Arkansas,Fulton
05051,34.64336178571428,-93.10800664285715,677.781,0.09825959144391654,Arkansas,Garland
05053,34.32863058333333,-92.39342875000001,631.809,0.01440669759445238,Arkansas,Grant
05055,36.12319842857143,-90.48107514285712,577.699,0.06754808267430333,Arkansas,Greene
05057,33.62102360714287,-93.78489582142858,727.52,0.022145020352804207,Arkansas,Hempstead
05059,34.324104874999996,-92.989322125,615.202,0.07857684769204346,Arkansas,Hot Spring
05061,34.06056584615384,-93.98548092307692,588.554,0.021822193870999457,Arkansas,Howard
05063,35.7653788125,-91.58843943750001,763.953,0.05612707937472737,Arkansas,Independence
05065,36.01406272727272,-91.91037663636362,580.577,0.02754776667890164,Arkansas,Izard
05067,35.59840993333333,-91.27110166666667,633.938,0.03818726812935757,Arkansas,Jackson
05069,34.24701161538462,-91.88436776923078,870.746,0.14395805069460785,Arkansas,Jefferson
05071,35.53530684615385,-93.41347661538462,659.804,0.03493888958305059,Arkansas,Johnson
05073,33.19212035,-93.59740604999999,528.268,0.007089239806726617,Arkansas,Lafayette
05075,36.02409715384615,-91.06991261538464,587.614,0.030941675991086687,Arkansas,Lawrence
05077,34.76064578125001,-90.59010421875,602.621,0.03405740277008057,Arkansas,Lee
05079,34.006130125,-91.634623875,561.517,0.070860142028688,Arkansas,Lincoln
05081,33.70373342499999,-94.329295325,532.253,0.01707083204759684,Arkansas,Little River
05083,35.23082777272727,-93.68018936363636,708.125,0.02305771479809648,Arkansas,Logan
05085,34.81185758823529,-91.91759917647062,770.728,0.06982533388761733,Arkansas,Lonoke
05087,35.98836386666667,-93.72617533333333,834.255,0.016091441283993067,Arkansas,Madison
05089,36.35315831249999,-92.6896745,597.009,0.00978389467024543,Arkansas,Marion
05091,33.35236306349206,-93.92951474603177,625.578,0.057940701174422946,Arkansas,Miller
05093,35.78183587837837,-89.91976827027025,900.574,0.0853289181937883,Arkansas,Mississippi
05095,34.6499542,-91.18487094999999,607.122,0.008202864058547383,Arkansas,Monroe
05097,34.50497883333333,-93.596466,779.88,0.00671261701718154,Arkansas,Montgomery
05099,33.64457511111111,-93.33773088888888,617.837,0.011817207535535857,Arkansas,Nevada
05101,35.94478454545454,-93.24964436363638,820.896,0.01132768053656091,Arkansas,Newton
05103,33.54184475,-92.77564856250001,732.783,0.01565769324731099,Arkansas,Ouachita
05105,34.925542785714285,-92.90455007142857,551.402,0.006290109779534994,Arkansas,Perry
05107,34.32346313793103,-90.8470106551724,695.663,0.025464057341437946,Arkansas,Phillips
05109,34.1327053,-93.67120480000001,600.618,0.009830545325320987,Arkansas,Pike
05111,35.54043275,-90.622046375,758.389,0.04441676040234932,Arkansas,Poinsett
05113,34.476386473684215,-94.35316068421054,857.679,0.017795803897668678,Arkansas,Polk
05115,35.41601305555555,-93.08557355555556,812.548,0.0980063444582404,Arkansas,Pope
05117,34.81731642105264,-91.56219763157895,647.958,0.009704911318965512,Arkansas,Prairie
05119,34.729682043478256,-92.34235365217391,759.763,0.4412791178822304,Arkansas,Pulaski
05121,36.44060674074075,-91.05426399999999,652.191,0.02556447115993055,Arkansas,Randolph
05123,34.994311399999994,-90.83100680000003,634.771,0.05785488534922853,Arkansas,St. Francis
05125,34.62728741666667,-92.61639704166667,723.604,0.11857734758632206,Arkansas,Saline
05127,34.8698572,-94.23596045000001,892.32,0.00917825592538123,Arkansas,Scott
05129,35.92382791666666,-92.64705583333334,666.095,0.007856496660601476,Arkansas,Searcy
05131,35.24817142857143,-94.35367420000003,531.911,0.1876607811819283,Arkansas,Sebastian
05133,33.965617466666664,-94.29395673333333,565.126,0.04769794740479236,Arkansas,Sevier
05135,36.27518610526316,-91.46636115789474,604.439,0.01663290321354188,Arkansas,Sharp
05137,35.921528333333335,-92.15823193333334,606.405,0.01311308490721835,Arkansas,Stone
05139,33.076554281250004,-92.58772156250001,1039.214,0.04076271883349113,Arkansas,Union
05141,35.59256516666667,-92.57288458333333,708.143,0.008539550687196886,Arkansas,Van Buren
05143,35.9299038,-94.41610508571428,941.966,0.410264498005383,Arkansas,Washington
05145,35.24994355,-91.6862885,1035.075,0.07130536252834879,Arkansas,White
05147,35.1560505,-91.28018681249998,586.791,0.005250640425380447,Arkansas,Woodruff
05149,35.04108411764706,-93.31098688235294,929.984,0.045244853005016565,Arkansas,Yell
06001,37.70756478571429,-122.1356923142857,739.017,0.8147067950315792,California,Alameda
06003,38.60659728571428,-119.80152728571429,738.332,0.0009214366558909248,California,Alpine
06005,38.46161228571428,-120.58856942857145,594.583,0.013227616097649744,California,Amador
06007,39.702036954545456,-121.59082763636366,1636.464,0.10600091636287036,California,Butte
06009,38.17591028571429,-120.54905357142859,1020.012,0.012451668823895102,California,Calaveras
06011,39.20996918750001,-122.26463987500001,1150.731,0.01827026570008191,California,Colusa
06013,37.92741242666668,-122.0569776533333,715.937,0.6603095546409072,California,Contra Costa
06015,41.722652018867926,-124.04173752830191,1006.373,0.007202676833289821,California,Del Norte
06017,38.81023660869566,-120.52144582608696,1707.883,0.05275894993031906,California,El Dorado
06019,36.81774804347826,-119.69529682608695,5957.991,1.0287044117372048,California,Fresno
06021,39.58589161538461,-122.39524553846152,1313.947,0.023758858735873148,California,Glenn
06023,40.67201242222222,-124.13231483333327,3567.987,0.021846567271299293,California,Humboldt
06025,33.00060371428572,-114.85921488095235,4176.603,0.4218588260602358,California,Imperial
06027,36.46445817647059,-117.38994202941177,10180.879,0.00794540617384997,California,Inyo
06029,35.33609128947368,-119.17864718421053,8131.916,1.0966881656725804,California,Kern
06031,36.18585666666666,-119.83202613333334,1389.42,0.2860116240676964,California,Kings
06033,39.139091695652176,-122.78272704347829,1256.464,0.02420281407234852,California,Lake
06035,40.25475185294119,-120.30868679411763,4541.184,0.03394658867931005,California,Lassen
06037,32.90941864285713,-118.49449680952384,4057.884,10.275930017086976,California,Los Angeles
06039,37.221931375000004,-119.68677293749998,2137.069,0.16600113390223017,California,Madera
06041,38.00174251351351,-122.6787855765766,520.306,0.2277401659102232,California,Marin
06043,37.61821556521739,-119.97342247826089,1448.816,0.0029829567847477465,California,Mariposa
06045,39.31544564356435,-123.6263601782178,3506.343,0.039777386638524544,California,Mendocino
06047,37.159090666666664,-120.69119773333333,1934.972,0.31213924366098034,California,Merced
06049,41.8737206,-121.01807920000002,3917.77,0.002859015558824571,California,Modoc
06051,38.13410833333333,-119.12279892592593,3048.982,0.01453841268100177,California,Mono
06053,36.33770242201834,-121.5888902568808,3280.595,0.3923340774499109,California,Monterey
06055,38.515505842105256,-122.27560863157896,748.362,0.07802044122442575,California,Napa
06057,39.281926647058825,-120.81543447058823,957.772,0.027539305698379334,California,Nevada
06059,33.66789999999999,-117.84448185714284,790.568,2.02360906330548,California,Orange
06061,39.05538225000001,-120.6258890625,1407.009,0.16654756289794476,California,Placer
06063,40.03025558620689,-120.89931737931036,2553.043,0.004471987508837231,California,Plumas
06065,33.75122876086957,-115.77883658695652,7206.48,2.2755425700835215,California,Riverside
06067,38.45229265116279,-121.49204939534883,964.644,0.940310825964053,California,Sacramento
06069,36.590947703703705,-121.17504233333335,1388.71,0.049151120242330884,California,San Benito
06071,34.739046628205124,-115.65218458974358,20056.938,2.2438818264049187,California,San Bernardino
06073,32.94465372881356,-117.13793513559322,4206.63,1.9828272402287426,California,San Diego
06075,37.86085190909091,-122.42824181818182,46.873,0.6573954273713939,California,San Francisco
06077,37.89621033333333,-121.3854707878788,1391.322,0.7110338224197422,California,San Joaquin
06079,35.34700925999998,-120.62074413000002,3298.567,0.15534311921092683,California,San Luis Obispo
06081,37.457035270000006,-122.36367198000002,448.408,0.4012318544963103,California,San Mateo
06083,33.97854123214285,-120.09970253571431,2735.085,0.3179356598717887,California,Santa Barbara
06085,37.21573273684211,-121.68467826315789,1290.1,0.885300288824765,California,Santa Clara
06087,36.996572256410246,-121.9834192051282,445.17,0.11218705687852681,California,Santa Cruz
06089,40.57957188461539,-122.33713196153846,3775.402,0.09977388146533622,California,Shasta
06091,39.572985142857135,-120.52704678571429,953.214,0.0003877629649094511,California,Sierra
06093,41.67795692452828,-122.74814581132078,6277.887,0.011449029169533897,California,Siskiyou
06095,38.22236813888888,-121.97481861111113,821.765,0.2764469115419014,California,Solano
06097,38.44025690322579,-123.00408737096774,1575.849,0.3362494365827069,California,Sonoma
06099,37.530099095238086,-121.0585414761905,1494.827,0.5849602754152103,California,Stanislaus
06101,38.942371928571426,-121.65136628571427,602.41,0.06903595483131424,California,Sutter
06103,40.19952218518519,-122.18243959259259,2949.709,0.036997506175793546,California,Tehama
06105,40.78672720588236,-123.03028779411764,3179.254,0.00216385109926992,California,Trinity
06107,36.25390357692308,-118.80243773076924,4824.215,0.5664131141077039,California,Tulare
06109,37.93049800000001,-119.86158864516126,2220.884,0.017327556210521518,California,Tuolumne
06111,33.253100666666676,-119.51925899999999,1843.133,0.5043665653049573,California,Ventura
06113,38.619477882352946,-121.80136444117646,1014.689,0.1190508795100524,California,Yolo
06115,39.3888,-121.23879599999998,631.839,0.04815303050163509,California,Yuba
08001,39.85610046153845,-104.68990126923077,1167.653,0.689336099182441,Colorado,Adams
08003,37.53860257142857,-105.75546885714286,722.643,0.014077237428573143,Colorado,Alamosa
08005,39.6413759516129,-104.85732961290321,798.1,0.6248579014694355,Colorado,Arapahoe
08007,37.11644468421053,-106.88326831578945,1350.175,0.003213487884271852,Colorado,Archuleta
08009,37.216718571428586,-102.25336666666668,2554.967,0.0013223896014487888,Colorado,Baca
08011,37.86397685714285,-103.168192,1512.861,0.001099718164145107,Colorado,Bent
08013,39.94576587248323,-105.11171561912747,726.289,0.26295975017759043,Colorado,Boulder
08014,39.96463492475728,-105.07408423422318,33.034,0.07267350313486283,Colorado,Broomfield
08015,38.84454710526315,-106.26027584210527,1013.403,0.015393585224884746,Colorado,Chaffee
08017,38.7635235,-102.17015111111112,1778.276,0.0008322686470848894,Colorado,Cheyenne
08019,39.678464416666664,-105.65276783333331,395.227,0.004653495134423403,Colorado,Clear Creek
08021,37.12988886666666,-106.07253653333335,1287.391,0.003998917751690209,Colorado,Conejos
08023,37.12781347619048,-105.47396999999998,1226.952,0.0018466158387117422,Colorado,Costilla
08025,38.253998888888894,-103.68931022222222,787.421,0.020509831534484595,Colorado,Crowley
08027,38.059329,-105.34958160000001,738.625,0.0016006851909770537,Colorado,Custer
08029,38.88218928571429,-107.84047100000001,1142.05,0.011268998658426455,Colorado,Delta
08031,39.677385313670456,-105.04693477153555,153.0,0.901593938933003,Colorado,Denver
08033,37.695882473684215,-108.71976289473685,1067.051,0.00012447557633495692,Colorado,Dolores
08035,39.328223571428566,-105.00625999999998,840.248,0.22651603685517055,Colorado,Douglas
08037,39.66123858333333,-106.55028241666669,1684.53,0.05711701496855966,Colorado,Eagle
08039,39.16307622222222,-104.10720988888889,1850.847,0.012404038296893445,Colorado,Elbert
08041,38.81236272727273,-104.62141027272727,2126.801,0.5641148643414,Colorado,El Paso
08043,38.52039046153846,-105.39905015384615,1533.068,0.046930132852776134,Colorado,Fremont
08045,39.662425166666665,-107.99589827777778,2947.563,0.04915562525518062,Colorado,Garfield
08047,39.86480438461539,-105.45303330769231,149.896,0.002431156413140724,Colorado,Gilpin
08049,40.140751625,-106.14242325000002,1846.33,0.006745650921000502,Colorado,Grand
08051,38.81567376190475,-107.03906995238094,3239.1,0.01271900549024365,Colorado,Gunnison
08053,37.79354371428571,-107.32984314285714,1117.251,0.00016516432129545054,Colorado,Hinsdale
08055,37.696919478260874,-105.00652704347826,1591.001,0.002733214781718664,Colorado,Huerfano
08057,40.734106814814815,-106.39463525925925,1613.723,0.0004051442819621487,Colorado,Jackson
08059,39.634990800000004,-105.0813594,764.208,0.4551233768669183,Colorado,Jefferson
08061,38.45008516666667,-102.44638722222223,1767.767,0.0004950767032680124,Colorado,Kiowa
08063,39.37989461111111,-102.21400411111111,2160.822,0.007143435999760349,Colorado,Kit Carson
08065,39.27652,-106.32783260000001,376.911,0.006228416089686418,Colorado,Lake
08067,37.23828115384615,-107.9810273846154,1692.078,0.01992729421454669,Colorado,La Plata
08069,40.7609456111111,-105.49986644444442,2596.002,0.2152753578650285,Colorado,Larimer
08071,37.327663750000006,-104.36465499999998,4772.672,0.0035841722068146067,Colorado,Las Animas
08073,38.99591721428572,-103.53680785714286,2577.626,0.0026792224313231835,Colorado,Lincoln
08075,40.941659604166674,-103.040876625,1838.547,0.05225039288545008,Colorado,Logan
08077,39.01373419047619,-108.507824,3328.974,0.11294603024026789,Colorado,Mesa
08079,37.719532,-106.92066625,875.666,0.0006432339285722772,Colorado,Mineral
08081,40.6037225,-108.234645625,4743.29,0.0041884774817487576,Colorado,Moffat
08083,37.217310857142856,-108.77019466666668,2029.527,0.01309463997610883,Colorado,Montezuma
08085,38.331345400000004,-108.29318860000002,2240.695,0.01973452919757237,Colorado,Montrose
08087,40.2712367,-103.8438658,1280.433,0.03779776344953668,Colorado,Morgan
08089,38.01464066666667,-103.67415083333333,1261.961,0.00941769913096037,Colorado,Otero
08091,38.121920571428575,-107.79322642857142,541.593,0.0031062245256024126,Colorado,Ouray
08093,39.2247094,-105.77836930000001,2193.846,0.0052432464674108,Colorado,Park
08095,40.60381075,-102.20311387500001,687.928,0.004006509315350256,Colorado,Phillips
08097,39.15431155,-106.9147843,970.697,0.011628859821212454,Colorado,Pitkin
08099,37.89264631578948,-102.11683952631579,1638.395,0.011006882820346574,Colorado,Prowers
08101,38.134233090909085,-104.56540618181818,2386.104,0.1520837623545594,Colorado,Pueblo
08103,40.04746484210528,-108.0518415263158,3220.934,0.0019431696129334154,Colorado,Rio Blanco
08105,37.604778777777774,-106.52851655555554,911.958,0.0054934422952966295,Colorado,Rio Grande
08107,40.54512463157894,-106.9305722631579,2362.026,0.012145081993599502,Colorado,Routt
08109,38.04113483333334,-106.24568266666667,3168.525,0.00581161242712417,Colorado,Saguache
08111,37.79590511111111,-107.70142400000002,387.488,0.0005256115340832039,Colorado,San Juan
08113,37.961466466666664,-108.39079226666667,1286.611,0.005034764168077367,Colorado,San Miguel
08115,40.977043166666675,-102.35196240000002,548.041,0.0023015215535952586,Colorado,Sedgwick
08117,39.61653364705882,-106.11007670588234,608.358,0.0350316201623358,Colorado,Summit
08119,38.87960309090909,-105.16485881818181,557.055,0.012996997675587887,Colorado,Teller
08121,39.907266416666666,-103.347017,2518.031,0.004695015467401466,Colorado,Washington
08123,40.11144615693436,-104.9042420948905,3987.238,0.3014950138935665,Colorado,Weld
08125,40.068201380952395,-102.18689533333334,2364.405,0.007982626455582873,Colorado,Yuma
09001,41.23610495522387,-73.33764713432838,624.89,0.9519851509956045,Connecticut,Fairfield
09003,41.849397361702124,-72.74375485106383,735.097,0.7111747238246411,Connecticut,Hartford
09005,41.74174204444443,-73.20606202222221,920.56,0.09937361571613651,Connecticut,Litchfield
09007,41.406389864864856,-72.53776056756759,369.301,0.08988818747772491,Connecticut,Middlesex
09009,41.3154802442748,-72.8326320458015,604.506,0.7098009126514322,Connecticut,New Haven
09011,41.41218156944443,-72.08363777777775,664.878,0.15276228452697135,Connecticut,New London
09013,41.92217925925926,-72.30202151851853,410.214,0.07674028104001392,Connecticut,Tolland
09015,41.816142090909096,-72.02211442424242,512.91,0.061739844435643315,Connecticut,Windham
10001,39.1488986875,-75.495486640625,586.179,0.12685513295676343,Delaware,Kent
10003,39.58923466666666,-75.57171366666667,426.286,0.4920698979870519,Delaware,New Castle
10005,38.604653625,-75.36057663636365,936.079,0.2760506798819508,Delaware,Sussex
12001,29.6522082631579,-82.32711194736844,875.02,0.35703448193454007,Florida,Alachua
12003,30.415648239999996,-82.21282744,585.231,0.05744140967548232,Florida,Baker
12005,30.159661529411757,-85.64418123529411,758.459,0.23294218879755202,Florida,Bay
12007,29.8747163,-82.1524054,293.962,0.04020771494981172,Florida,Bradford
12009,28.464075319148943,-80.65672876595745,1015.664,0.4169015721524188,Florida,Brevard
12011,26.139587022222223,-80.2434941111111,1209.785,2.8799597754119017,Florida,Broward
12013,30.398070818181818,-85.17906036363637,567.334,0.024268098616422942,Florida,Calhoun
12015,26.872143606557373,-82.159626852459,680.279,0.13322445597489058,Florida,Charlotte
12017,28.848806567567575,-82.6065223243243,581.696,0.1216680106103541,Florida,Citrus
12019,29.975344916666668,-81.85357366666668,604.36,0.21249903420056748,Florida,Clay
12021,26.007364828124995,-81.55029682812501,1998.324,0.4811832494172069,Florida,Collier
12023,30.39898315,-82.60860965,797.574,0.13607611994735308,Florida,Columbia
12027,27.164131166666667,-81.892181,637.059,0.05491786533772678,Florida,DeSoto
12029,29.49643524999999,-83.2634765,705.053,0.02826335895246384,Florida,Dixie
12031,30.347106346153847,-81.57656449999999,762.192,1.1722959112583455,Florida,Duval
12033,30.73860516883116,-87.3807446883117,656.461,0.4599030485237893,Florida,Escambia
12035,29.496370785714284,-81.28793378571427,485.461,0.07526814704214627,Florida,Flagler
12037,29.66111597058824,-84.89961150000002,534.725,0.02444731828305471,Florida,Franklin
12039,30.615388875000004,-84.6479065,516.332,0.09489014547855276,Florida,Gadsden
12041,29.803818916666668,-82.81268658333333,349.677,0.020825935810104813,Florida,Gilchrist
12043,27.053852909090907,-81.1444468181818,806.009,0.019259106784181967,Florida,Glades
12045,29.82668953703703,-85.31100518518518,564.012,0.030846539767380242,Florida,Gulf
12047,30.550865434782608,-83.01476656521739,513.79,0.028368915110630746,Florida,Hamilton
12049,27.523671,-81.85829299999999,637.783,0.05131843605409489,Florida,Hardee
12051,26.52561863636364,-81.11815236363636,1152.75,0.07110637669002427,Florida,Hendry
12053,28.538893812499996,-82.537529625,472.539,0.13320512239227295,Florida,Hernando
12055,27.272434846153846,-81.20971453846154,1016.615,0.09865496902899903,Florida,Highlands
12057,27.86688777941177,-82.47221550000002,1020.214,1.6086910336586673,Florida,Hillsborough
12059,30.833699800000005,-85.7289861,478.777,0.031451536077523615,Florida,Holmes
12061,27.683851625,-80.54103406250002,502.872,0.138367925620932,Florida,Indian River
12063,30.880324689655176,-85.14740910344831,917.76,0.10609517799929466,Florida,Jackson
12065,30.438737399999997,-83.91266028571428,598.095,0.021763438682286716,Florida,Jefferson
12067,30.02884084615385,-83.1415623846154,543.411,0.03864521759244034,Florida,Lafayette
12069,28.849474156250004,-81.57127271874997,938.381,0.29417777601730155,Florida,Lake
12071,26.548715190476194,-82.16856828571429,784.513,0.8026455538825373,Florida,Lee
12073,30.509101750000003,-84.16686341666667,666.852,0.4114977632777894,Florida,Leon
12075,29.197303349206354,-82.87086450793647,1118.206,0.03810436786583494,Florida,Levy
12077,30.26372182352941,-84.87908688235294,835.562,0.016688824008551616,Florida,Liberty
12079,30.521846964285714,-83.43549753571428,695.948,0.03555371645956,Florida,Madison
12081,27.515385097560976,-82.58565075609756,742.931,0.450617372451804,Florida,Manatee
12083,29.234052321428567,-82.00889428571429,1584.546,0.3551809854114541,Florida,Marion
12085,27.112186952380956,-80.3147714761905,543.464,0.1755395535758729,Florida,Martin
12086,25.407163122699377,-80.4807774233129,1897.716,6.09159370159837,Florida,Miami-Dade
12087,25.17450505357144,-80.40341850000002,983.282,0.0859644266247335,Florida,Monroe
12089,30.652598605263158,-81.75025915789475,648.639,0.08442685245160267,Florida,Nassau
12091,30.69085465714286,-86.5256294,930.247,0.2321592975344366,Florida,Okaloosa
12093,27.383246375000006,-80.84247737499999,768.908,0.05696712867456203,Florida,Okeechobee
12095,28.577502818181816,-81.39835004545454,903.429,1.571151128425594,Florida,Orange
12097,28.10083730434783,-81.27045260869565,1327.453,0.48605050860796,Florida,Osceola
12099,26.555703135135133,-80.17455086486488,1969.763,1.765084004319744,Florida,Palm Beach
12101,28.310932370370374,-82.58670925925928,746.886,0.3888694317303334,Florida,Pasco
12103,28.0292846,-82.82387625000001,273.799,0.9226676781584625,Florida,Pinellas
12105,28.06519928,-81.65277168,1797.837,0.7636579411730358,Florida,Polk
12107,29.55092444444444,-81.69743544444444,727.622,0.07721005303277348,Florida,Putnam
12109,29.917325749999996,-81.42723146428573,600.655,0.23180908030980288,Florida,St. Johns
12111,27.364847611111113,-80.40737877777777,571.926,0.3028215639650154,Florida,St. Lucie
12113,30.775963,-87.03479825925925,1011.605,0.2000610783641058,Florida,Santa Rosa
12115,27.138802374999997,-82.40603353125,555.868,0.3473284831997331,Florida,Sarasota
12117,28.779212514285724,-81.30156174285713,309.221,0.36635753759686673,Florida,Seminole
12119,28.671732090909096,-82.08530581818182,546.933,0.09775069864789897,Florida,Sumter
12121,30.17144825,-83.03628225000001,688.552,0.09416770813895012,Florida,Suwannee
12123,29.901241775510215,-83.6272679795918,1043.305,0.04724679288108308,Florida,Taylor
12125,30.002036714285712,-82.40736028571429,243.556,0.03637371252988912,Florida,Union
12127,29.068175978723406,-81.26395810638296,1101.032,0.4350190567293822,Florida,Volusia
12129,30.09154674418604,-84.25686781395349,606.419,0.04472631578700165,Florida,Wakulla
12131,30.672914187499998,-86.16535649999997,1037.625,0.09861777540632663,Florida,Walton
12133,30.635485666666675,-85.66660046666667,582.803,0.04241149980625837,Florida,Washington
13001,31.77081536363637,-82.30316754545454,507.081,0.03929999180855727,Georgia,Appling
13003,31.283184909090906,-82.85950018181819,339.382,0.017061361140225655,Georgia,Atkinson
13005,31.564745222222225,-82.47471955555557,258.576,0.022429357607752186,Georgia,Bacon
13007,31.286047083333333,-84.45871124999998,341.944,0.0036759004404921525,Georgia,Baker
13009,33.058522727272724,-83.22723809090908,257.844,0.07789090707369477,Georgia,Baldwin
13011,34.33098092857143,-83.46242321428574,232.091,0.020883687843563634,Georgia,Banks
13013,33.98164977777778,-83.71243666666665,160.309,0.0982809279062085,Georgia,Barrow
13015,34.150904499999996,-84.7678253888889,459.544,0.13847854225241107,Georgia,Bartow
13017,31.752229399999994,-83.22873129999999,250.121,0.029762357921020426,Georgia,Ben Hill
13019,31.296557347826088,-83.18195639130434,451.897,0.019445518162277298,Georgia,Berrien
13021,32.82068922222222,-83.67898033333333,249.762,0.2239193710093375,Georgia,Bibb
13023,32.43743333333334,-83.32168922222223,215.87,0.02113853024842372,Georgia,Bleckley
13025,31.200466866666666,-82.02208239999999,442.362,0.0221718328067866,Georgia,Brantley
13027,30.88147527777778,-83.49738366666666,493.046,0.018748491486913963,Georgia,Brooks
13029,31.941088944444445,-81.37705705555555,435.967,0.04315096942643418,Georgia,Bryan
13031,32.40551461538461,-81.79855746153846,672.809,0.11000206988740849,Georgia,Bulloch
13033,33.082217666666665,-81.96919038888888,826.968,0.03528275712517624,Georgia,Burke
13035,33.30067436363636,-83.97146309090908,184.393,0.03062952018809342,Georgia,Butts
13037,31.545936333333334,-84.609851,280.367,0.009435207490353262,Georgia,Calhoun
13039,30.879680404255314,-81.56832006382979,613.025,0.050382465716151445,Georgia,Camden
13043,32.35993277777778,-82.06067855555554,243.044,0.01852740427602648,Georgia,Candler
13045,33.60155129411765,-85.11366711764707,499.076,0.15013294430384133,Georgia,Carroll
13047,34.92924331578948,-85.17470063157894,162.159,0.05802912363429148,Georgia,Catoosa
13049,30.6444179,-82.10899480000002,773.576,0.02281696356835817,Georgia,Charlton
13051,31.9274452542373,-81.02596579661017,426.437,0.31393305165715535,Georgia,Chatham
13053,32.39980386111112,-84.81565433333334,248.736,0.05830176540122331,Georgia,Chattahoochee
13055,34.47285328571429,-85.43430414285714,313.338,0.035614424693553554,Georgia,Chattooga
13057,34.265989749999996,-84.39268508333333,421.674,0.28107485618601397,Georgia,Cherokee
13059,33.96642683333334,-83.33877450000001,119.2,0.2358176721464941,Georgia,Clarke
13061,31.656870650000002,-85.03777495000001,195.381,0.004502742488708063,Georgia,Clay
13063,33.54596145000001,-84.39580765,141.57,0.31526008820392193,Georgia,Clayton
13065,30.743038285714285,-82.59623000000002,800.222,0.015794804021980337,Georgia,Clinch
13067,33.97381091999999,-84.6446242,339.549,0.8313309586582647,Georgia,Cobb
13069,31.527818318181822,-82.94237631818181,575.097,0.08190216257003155,Georgia,Coffee
13071,31.180273999999997,-83.7567844,544.153,0.07777892881495202,Georgia,Colquitt
13073,33.588161562500005,-82.18265475000001,290.09,0.1799891887941612,Georgia,Columbia
13075,31.171344222222224,-83.42930466666667,227.162,0.024228318766280513,Georgia,Cook
13077,33.30840366666666,-84.72538958333332,440.892,0.13802094895367611,Georgia,Coweta
13079,32.7101091,-83.9021671,324.888,0.007504190512244839,Georgia,Crawford
13081,31.890789772727274,-83.88474268181818,272.583,0.027602506876679485,Georgia,Crisp
13083,34.82787328571429,-85.53179142857142,173.981,0.014802031662255636,Georgia,Dade
13085,34.46563425,-84.20447193750002,210.83,0.031776859733950356,Georgia,Dawson
13087,30.871947249999995,-84.57945199999999,597.14,0.0463004236857974,Georgia,Decatur
13089,33.82690006976744,-84.26740323255814,267.582,0.783510108245864,Georgia,DeKalb
13091,32.1878781875,-83.1214869375,495.89,0.031041543791898163,Georgia,Dodge
13093,32.162566777777776,-83.80807555555556,391.94,0.014040534508088162,Georgia,Dooly
13095,31.538638000000002,-84.1809258,328.689,0.11093466776272619,Georgia,Dougherty
13097,33.72365455172414,-84.74051499999997,200.067,0.160722680154481,Georgia,Douglas
13099,31.26158052173913,-84.98997152173912,512.594,0.019229407656305382,Georgia,Early
13101,30.72557819999999,-82.8908876,414.894,0.00803896168577238,Georgia,Echols
13103,32.40719319047619,-81.28979480952378,477.7,0.06283269679360226,Georgia,Effingham
13105,34.13273407142857,-82.73817814285715,351.055,0.031626006483512846,Georgia,Elbert
13107,32.55173931578948,-82.32416936842105,680.604,0.042038410518128025,Georgia,Emanuel
13109,32.18908344444444,-81.89121022222223,182.853,0.01674579550491097,Georgia,Evans
13111,34.869565736842105,-84.32135068421053,386.723,0.028885413114581943,Georgia,Fannin
13113,33.385093125000004,-84.48665787499999,194.342,0.0903399350006378,Georgia,Fayette
13115,34.328148999999996,-85.26606899999999,509.911,0.15097317460416304,Georgia,Floyd
13117,34.16416811111112,-84.11565188888889,224.021,0.18941764131029507,Georgia,Forsyth
13119,34.380777230769226,-83.20594746153847,261.497,0.034191069458561194,Georgia,Franklin
13121,33.77332852830189,-84.46309396226415,526.635,1.117495906835171,Georgia,Fulton
13123,34.681989,-84.48749645454546,426.54,0.03625218476330611,Georgia,Gilmer
13125,33.24895885714286,-82.61956842857144,143.74,0.002493681269734694,Georgia,Glascock
13127,31.1615885,-81.41303161764706,419.753,0.12487538876634868,Georgia,Glynn
13129,34.552994937499996,-84.9010359375,355.808,0.09405055434312809,Georgia,Gordon
13131,30.831027999999996,-84.23313788888888,454.527,0.0295961401205434,Georgia,Grady
13133,33.571527181818176,-83.15058645454546,387.435,0.020793312064194873,Georgia,Greene
13135,33.97743573529412,-84.12404888235291,430.383,1.106850109963274,Georgia,Gwinnett
13137,34.68187685714285,-83.51248533333332,276.74,0.06334414500860538,Georgia,Habersham
13139,34.29937353846154,-83.85231692307691,392.782,0.3564145386793885,Georgia,Hall
13141,33.230897799999994,-83.0000266,471.841,0.01336886904550274,Georgia,Hancock
13143,33.814867,-85.22327822222223,282.165,0.035430933184558124,Georgia,Haralson
13145,32.72072814285714,-85.01571571428572,463.869,0.03000832029461961,Georgia,Harris
13147,34.4170582,-82.97579234999999,232.394,0.02291232281804773,Georgia,Hart
13149,33.3271838,-85.1557372,296.03,0.010639314436803108,Georgia,Heard
13151,33.50350770000001,-84.17658255,322.127,0.24111565868250456,Georgia,Henry
13153,32.48817583333334,-83.66029816666668,375.541,0.13672808866722094,Georgia,Houston
13155,31.61878363636364,-83.280755,354.343,0.012410468477621573,Georgia,Irwin
13157,34.11417411111111,-83.54541933333333,339.663,0.09161473510812115,Georgia,Jackson
13159,33.287142624999994,-83.73727237499999,368.165,0.01262718106341959,Georgia,Jasper
13161,31.857591882352935,-82.54081029411765,330.74,0.02850545390082366,Georgia,Jeff Davis
13163,33.11929305,-82.37824185000001,526.485,0.028739792074990948,Georgia,Jefferson
13165,32.78916011111111,-81.93466766666667,347.279,0.015038691492089114,Georgia,Jenkins
13167,32.706038,-82.71866957142856,303.01,0.015672932763832248,Georgia,Johnson
13169,32.992552714285715,-83.51090378571428,393.933,0.023048535483822626,Georgia,Jones
13171,33.055766000000006,-84.15544299999999,183.5,0.019231585374440176,Georgia,Lamar
13173,30.970708000000002,-83.04632457142858,185.261,0.012125963161850078,Georgia,Lanier
13175,32.48658975,-82.91838525,807.296,0.07514423420525466,Georgia,Laurens
13177,31.839571708333338,-84.00758745833332,355.784,0.027088862984338196,Georgia,Lee
13179,31.74983388888889,-81.34255799999998,489.801,0.045102566029287625,Georgia,Liberty
13181,33.752760095238095,-82.4247597142857,210.38,0.009149482226666684,Georgia,Lincoln
13183,31.7599359,-81.7014267,400.293,0.010026184189568198,Georgia,Long
13185,30.871374186046513,-83.339420627907,496.066,0.175818093848592,Georgia,Lowndes
13187,34.583510727272724,-84.00149336363636,282.933,0.036509109158848564,Georgia,Lumpkin
13189,33.5139725,-82.4333963888889,257.461,0.027221154068396966,Georgia,McDuffie
13191,31.485108666666672,-81.2979688611111,424.299,0.011112342726159031,Georgia,McIntosh
13193,32.3333877,-84.06927049999999,400.641,0.009762905424835492,Georgia,Macon
13195,34.1505908125,-83.21473562499999,282.311,0.0314202460758238,Georgia,Madison
13197,32.3139553,-84.5477421,366.003,0.007458193485758612,Georgia,Marion
13199,33.05686481818182,-84.65781681818181,501.223,0.02283989540160157,Georgia,Meriwether
13201,31.15204114285714,-84.74493685714286,282.421,0.012239530110164851,Georgia,Miller
13205,31.20792784615385,-84.22717669230768,512.085,0.028684877124101647,Georgia,Mitchell
13207,33.06518235714286,-83.88730321428571,395.658,0.029098516578126676,Georgia,Monroe
13209,32.15841285714286,-82.53021085714286,239.523,0.012801985394369365,Georgia,Montgomery
13211,33.56610615384615,-83.53526307692307,347.349,0.023365101841653815,Georgia,Morgan
13213,34.83325136842105,-84.76640121052631,344.466,0.04380121134180486,Georgia,Murray
13215,32.47960780555555,-84.90006991666667,216.385,0.22006239669795935,Georgia,Muscogee
13217,33.54916688235294,-83.81316835294116,272.161,0.10986222716362268,Georgia,Newton
13219,33.830812571428574,-83.45124771428571,184.29,0.04020398706324286,Georgia,Oconee
13221,33.873126733333336,-83.04521380000001,439.012,0.015606582742377775,Georgia,Oglethorpe
13223,33.840386208333335,-84.839582,312.219,0.13580812443147633,Georgia,Paulding
13225,32.55316125,-83.86175125000001,150.267,0.0314714849515526,Georgia,Peach
13227,34.471360625,-84.465534875,232.057,0.03161543493652301,Georgia,Pickens
13229,31.364297666666662,-82.21687741666666,316.494,0.03567651905586889,Georgia,Pierce
13231,33.103725857142855,-84.39019385714286,216.086,0.022200566626826852,Georgia,Pike
13233,34.01828911111111,-85.15402588888888,310.331,0.06643727862227794,Georgia,Polk
13235,32.252512857142854,-83.45645014285712,249.031,0.01324894165882745,Georgia,Pulaski
13237,33.2954595,-83.37098699999999,344.639,0.029047818940972997,Georgia,Putnam
13239,31.8815965,-85.05969391666666,151.237,0.002413043215254631,Georgia,Quitman
13241,34.8726321875,-83.359711125,369.993,0.015639592781334827,Georgia,Rabun
13243,31.764632818181816,-84.76689845454547,428.236,0.011047544091922342,Georgia,Randolph
13245,33.36879023809524,-82.10625399999999,324.326,0.28936937340122165,Georgia,Richmond
13247,33.671550764705884,-84.04341429411767,129.793,0.08363659833683026,Georgia,Rockdale
13249,32.28696585714285,-84.278985,166.906,0.005025253086332809,Georgia,Schley
13251,32.7529225,-81.51683022727273,645.101,0.014975918455243823,Georgia,Screven
13253,30.951332562500006,-84.93531349999999,235.226,0.015177870970437659,Georgia,Seminole
13255,33.25054073333333,-84.383533,196.469,0.06805082953764588,Georgia,Spalding
13257,34.576177,-83.2703080769231,179.131,0.04325237864527509,Georgia,Stephens
13259,32.114550083333334,-84.90795416666667,458.733,0.018643531189693165,Georgia,Stewart
13261,32.06575781818181,-84.24442636363636,482.697,0.03605868576002705,Georgia,Sumter
13263,32.634227,-84.55590841176472,391.389,0.006822959075115837,Georgia,Talbot
13265,33.60030338461539,-82.87643169230768,194.608,0.0012241950068027723,Georgia,Taliaferro
13267,31.976605812499997,-81.99970081250001,479.403,0.032023162678986854,Georgia,Tattnall
13269,32.55323361538462,-84.21706230769232,376.686,0.009724117183713294,Georgia,Taylor
13271,31.958681153846157,-82.93049623076922,437.303,0.01947494874729012,Georgia,Telfair
13273,31.75280641666666,-84.44195641666668,335.439,0.01186702871303362,Georgia,Terrell
13275,30.789518380952387,-83.972354,544.596,0.055867086937180024,Georgia,Thomas
13277,31.449456111111108,-83.5042607777778,258.915,0.06957716451744522,Georgia,Tift
13279,32.1150991875,-82.39066818750001,364.005,0.04947934020714853,Georgia,Toombs
13281,34.84041753846154,-83.71744326923074,166.563,0.016650934561697767,Georgia,Towns
13283,32.37807154545454,-82.51625563636364,199.436,0.011628395607045032,Georgia,Treutlen
13285,33.071578333333335,-85.11086644444444,413.988,0.11359179690237153,Georgia,Troup
13287,31.729543999999997,-83.60270449999999,285.393,0.012518032042073734,Georgia,Turner
13289,32.744641333333334,-83.45845277777777,358.398,0.00754155672348524,Georgia,Twiggs
13291,34.87844741176471,-83.99698164705885,321.926,0.030673433523257975,Georgia,Union
13293,32.86572872727273,-84.29511372727274,323.437,0.042739183934713675,Georgia,Upson
13295,34.777315884615376,-85.22752249999999,446.379,0.07061055465248527,Georgia,Walker
13297,33.78337436363636,-83.80851399999999,325.68,0.09142614891221332,Georgia,Walton
13299,31.021832592592588,-82.41008922222224,892.461,0.07458393542681085,Georgia,Ware
13301,33.47878888235294,-82.6329061764706,284.298,0.006219982942569433,Georgia,Warren
13303,32.996220230769225,-82.7724453076923,678.452,0.030766284513469234,Georgia,Washington
13305,31.59999672222223,-81.92578738888888,641.777,0.045809154940777565,Georgia,Wayne
13307,32.018629250000004,-84.552022875,209.118,0.001934153789133621,Georgia,Webster
13309,32.12991875,-82.72786841666667,295.484,0.012877347524321405,Georgia,Wheeler
13311,34.73758443478261,-83.72727478260869,240.686,0.035085775991691374,Georgia,White
13313,34.88264208333334,-84.92900379166666,290.464,0.2076743795466381,Georgia,Whitfield
13315,31.965063999999995,-83.41091,377.705,0.01034958377205054,Georgia,Wilcox
13317,33.71988788888889,-82.71856683333334,469.49,0.012204002026774206,Georgia,Wilkes
13319,32.82724054545454,-83.16335609090908,447.308,0.0126173651540549,Georgia,Wilkinson
13321,31.591068250000003,-83.89997275,570.702,0.02109120894151927,Georgia,Worth
15001,19.604205913043476,-155.54001117391294,4028.417,0.046262802015389286,Hawaii,Hawaii
15003,21.428677992957745,-157.90991934507036,600.743,0.4574558223780223,Hawaii,Honolulu
15007,21.65954042857143,-160.55024942857145,619.956,0.00446047343866695,Hawaii,Kauai
15009,21.153968643835615,-157.0387360684931,1161.521,0.024096151004057854,Hawaii,Maui
16001,43.45465593333333,-116.29278219999999,1052.576,0.6545284930997042,Idaho,Ada
16003,44.900656285714284,-116.56750678571427,1363.056,0.002625149001836283,Idaho,Adams
16005,42.682564818181824,-112.26166163636363,1111.988,0.10507898423447619,Idaho,Bannock
16007,42.307478280000005,-111.30691580000001,974.785,0.004220137121074377,Idaho,Bear Lake
16009,47.241403857142856,-116.86209257142856,776.617,0.006817312229553724,Idaho,Benewah
16011,43.29166754545455,-112.49770195454545,2093.978,0.0647617528211428,Idaho,Bingham
16013,43.41749017777777,-114.00201875555554,2643.586,0.03283914697163465,Idaho,Blaine
16015,43.99406218518517,-115.54788099999999,1899.237,0.0034872230258950554,Idaho,Boise
16017,48.228843,-116.72875538888886,1734.573,0.02270379507373544,Idaho,Bonner
16019,43.236682676470586,-111.30743141176468,1866.077,0.1840474292765878,Idaho,Bonneville
16021,48.8738169090909,-116.5798862727273,1268.56,0.00888713077338456,Idaho,Boundary
16023,43.68317692000001,-113.25317516000001,2231.667,0.0033972262829510217,Idaho,Butte
16025,43.515791647058826,-114.70689723529411,1074.493,0.001535479167745875,Idaho,Camas
16027,43.687267500000004,-116.82113981818185,587.37,0.3838755250854159,Idaho,Canyon
16029,42.74008616000002,-111.5246464,1764.146,0.011458886421616842,Idaho,Caribou
16031,42.26884873529412,-113.70460808823529,2565.081,0.05593519849270456,Idaho,Cassia
16033,44.414426117647075,-112.29059445098042,1764.185,0.001413555553629398,Idaho,Clark
16035,46.66649777142857,-115.1976768857143,2457.274,0.009263776722069659,Idaho,Clearwater
16037,44.28948645454543,-114.4559100181818,4920.94,0.0036683415520815423,Idaho,Custer
16039,43.477072222222226,-115.43564436111112,3074.738,0.02242763868758168,Idaho,Elmore
16041,42.161849800000006,-111.81885126666667,663.645,0.014974586838221648,Idaho,Franklin
16043,44.30951084615385,-111.48923605128206,1863.525,0.01882303132983466,Idaho,Fremont
16045,44.11866817647059,-116.39752011764705,560.9,0.019185279435664553,Idaho,Gem
16047,42.90148258333334,-114.81087016666667,728.973,0.02535711974970264,Idaho,Gooding
16049,45.90951564130435,-115.25475040217391,8477.352,0.016051229366278986,Idaho,Idaho
16051,43.85687883333333,-112.19939666666666,1093.501,0.03877066643357959,Idaho,Jefferson
16053,42.65693376470588,-114.16989835294117,597.185,0.04941856424003499,Idaho,Jerome
16055,47.63241496875,-116.92311046875001,1244.125,0.1781713039317091,Idaho,Kootenai
16057,46.77245191666666,-116.73531758333333,1075.996,0.04261709362569277,Idaho,Latah
16059,45.064723359999974,-113.80313628999998,4563.387,0.01179070480472335,Idaho,Lemhi
16061,46.24562686666666,-116.3954502,478.795,0.004647084587898465,Idaho,Lewis
16063,42.93846258333334,-114.10123300000002,1201.405,0.009187756702449871,Idaho,Lincoln
16065,43.825425800000005,-111.6614781,469.206,0.1032139300496949,Idaho,Madison
16067,42.766638923076925,-113.67329246153847,757.591,0.046373957378374055,Idaho,Minidoka
16069,46.289257655172406,-116.81511575862072,848.092,0.052108536158601226,Idaho,Nez Perce
16071,42.143510466666676,-112.51618503333336,1200.061,0.0028737853032360125,Idaho,Oneida
16073,42.81574521428571,-116.43563755357138,7665.511,0.014809183370177077,Idaho,Owyhee
16075,43.984965538461545,-116.76568176923075,406.867,0.041547244390473026,Idaho,Payette
16077,42.70339765217391,-112.84724382608692,1404.244,0.01253464591031553,Idaho,Power
16079,47.45955968292682,-115.68672190243903,2629.665,0.011651136898959243,Idaho,Shoshone
16081,43.73506535294118,-111.11682935294118,449.456,0.013513850901164508,Idaho,Teton
16083,42.399446416666656,-114.59699258333335,1921.213,0.17645686615635897,Idaho,Twin Falls
16085,44.682941366666675,-115.57577713333333,3664.515,0.0059950809427571005,Idaho,Valley
16087,44.42178365853658,-116.96010356097565,1452.982,0.018196862478887254,Idaho,Washington
17001,39.940433,-91.29570889473685,855.202,0.10958275901226576,Illinois,Adams
17003,37.087863875,-89.29749359375002,235.509,0.006854809275652047,Illinois,Alexander
17005,38.895362222222225,-89.47732377777778,380.279,0.025000020128929244,Illinois,Bond
17007,42.39652971428571,-88.78348385714285,280.719,0.09626254842061267,Illinois,Boone
17009,39.94048709090909,-90.66625745454546,305.607,0.006932262306765814,Illinois,Brown
17011,41.325395647058826,-89.6046815882353,869.031,0.04963933871317264,Illinois,Bureau
17013,39.05513903225806,-90.63253267741936,253.825,0.005124881094597558,Illinois,Calhoun
17015,42.07051491304348,-90.11088760869563,444.807,0.027186239097999734,Illinois,Carroll
17017,40.00462172727273,-90.29496890909091,375.818,0.021859836600880256,Illinois,Cass
17019,40.206321833333334,-88.28550700000001,996.266,0.2753283813006981,Illinois,Champaign
17021,39.65457344444444,-89.2435997222222,709.377,0.04609624214016412,Illinois,Christian
17023,39.33704584615385,-87.65527146153848,501.418,0.018890924213883532,Illinois,Clark
17025,38.7678937,-88.4761563,468.316,0.018157890837183662,Illinois,Clay
17027,38.615920916666674,-89.44444066666667,474.085,0.07791817104455553,Illinois,Clinton
17029,39.533806000000006,-88.21133588888888,508.291,0.0867808192138103,Illinois,Coles
17031,41.936587968992235,-87.7471180387597,945.326,7.699647561996525,Illinois,Cook
17033,38.98057923809523,-87.63848457142856,443.629,0.02622504446002006,Illinois,Crawford
17035,39.260575125,-88.28455124999999,346.024,0.01516520610161005,Illinois,Cumberland
17037,41.89239254545454,-88.72092018181819,631.307,0.12401480273266074,Illinois,DeKalb
17039,40.20531316666667,-88.83201983333333,397.513,0.015582795032137463,Illinois,De Witt
17041,39.77655325,-88.221889625,416.665,0.03388021142506299,Illinois,Douglas
17043,41.87583219230768,-88.1019191153846,327.499,1.109236841119488,Illinois,DuPage
17045,39.65742720000001,-87.59577325,623.374,0.017862486510290217,Illinois,Edgar
17047,38.344270800000004,-88.01130326666664,222.416,0.005357172351055446,Illinois,Edwards
17049,39.081354499999996,-88.5755444,478.777,0.0628979093926995,Illinois,Effingham
17051,39.074761333333335,-89.02125885714285,716.482,0.035807264562066926,Illinois,Fayette
17053,40.682593076923084,-88.15407476923077,485.616,0.016194632041093077,Illinois,Ford
17055,37.93710045454545,-88.90895527272727,408.889,0.05029728054570025,Illinois,Franklin
17057,40.560556181818185,-90.26264736363636,865.595,0.03235997442901498,Illinois,Fulton
17059,37.77772764285714,-88.19631614285717,323.071,0.005116949147431953,Illinois,Gallatin
17061,39.339715,-90.418887,543.019,0.019303274971692985,Illinois,Greene
17063,41.23827877777778,-88.35028766666667,418.043,0.06292658324158239,Illinois,Grundy
17065,37.9988935,-88.5063023,434.665,0.009026920620390623,Illinois,Hamilton
17067,40.46083978124999,-91.31141703125,793.726,0.02332713132914111,Illinois,Hancock
17069,37.50521086363636,-88.2162361363636,177.528,0.003201366162485266,Illinois,Hardin
17071,40.81228334782609,-91.00784573913042,378.872,0.0070867636674215315,Illinois,Henderson
17073,41.34764946666667,-90.08950820000001,822.985,0.05535962861848427,Illinois,Henry
17075,40.74572947058824,-87.62070170588235,1117.316,0.03671360677500826,Illinois,Iroquois
17077,37.71405553333332,-89.44270279999999,584.081,0.066649556116755,Illinois,Jackson
17079,39.019284375,-88.15682587499998,494.51,0.015170528303106523,Illinois,Jasper
17081,38.28351875,-88.92201237500001,571.169,0.04453182826409447,Illinois,Jefferson
17083,39.05758000000001,-90.38958486666667,369.271,0.02892263075822996,Illinois,Jersey
17085,42.44362450000001,-90.35164707812498,601.087,0.027343319275025216,Illinois,Jo Daviess
17087,37.461859625,-88.9039255,343.915,0.017805770375105733,Illinois,Johnson
17089,41.881871545454544,-88.3517659090909,520.058,0.7927566482448098,Illinois,Kane
17091,41.11563268,-87.84414540000003,676.556,0.2004900339671748,Illinois,Kankakee
17093,41.6220575,-88.3952985,320.335,0.1519623726930364,Illinois,Kendall
17095,40.946211312500004,-90.2054081875,716.395,0.06497216898101749,Illinois,Knox
17097,42.32424552542372,-87.85451620338982,443.67,0.9488754894035041,Illinois,Lake
17099,41.338150642857144,-88.9518307142857,1135.124,0.14378644454902312,Illinois,LaSalle
17101,38.70480366666667,-87.6256427142857,372.178,0.018738552317533956,Illinois,Lawrence
17103,41.7050028,-89.37232739999999,724.896,0.044541414747415194,Illinois,Lee
17105,40.88165266666667,-88.524455,1044.285,0.05003266958637294,Illinois,Livingston
17107,40.13174872727273,-89.33738654545455,618.059,0.036499968392535595,Illinois,Logan
17109,40.53399371428572,-90.7404782857143,589.407,0.039591160163366404,Illinois,McDonough
17111,42.380521117647056,-88.36645547058824,603.171,0.3503519229119968,Illinois,McHenry
17113,40.52310342105263,-88.84520784210528,1183.378,0.20401284715710596,Illinois,McLean
17115,39.812637411764705,-89.03497035294119,580.689,0.16143130931982233,Illinois,Macon
17117,39.251882095238095,-89.85510223809524,862.906,0.04610640563420876,Illinois,Macoupin
17119,38.8515092195122,-89.96869102439022,715.582,0.3414473388978253,Illinois,Madison
17121,38.59931077777778,-88.99400511111111,572.363,0.056011286811151764,Illinois,Marion
17123,41.06364590909091,-89.38615527272728,386.789,0.008435127896176637,Illinois,Marshall
17125,40.211141125,-89.956460625,539.238,0.015301005341013382,Illinois,Mason
17127,37.151851823529405,-88.66176829411765,237.218,0.010595869034926729,Illinois,Massac
17129,40.053313,-89.7921918,314.437,0.010256010410991195,Illinois,Menard
17131,41.16140628571428,-90.838119,561.202,0.017617113056311716,Illinois,Mercer
17133,38.281547272727266,-90.23432304545454,385.011,0.04875989702011917,Illinois,Monroe
17135,39.15887258823529,-89.48983841176471,703.687,0.028218281312865412,Illinois,Montgomery
17137,39.73115564285714,-90.348656,568.791,0.05106227367433136,Illinois,Morgan
17139,39.626453833333336,-88.64392525,335.943,0.0217982622570435,Illinois,Moultrie
17141,42.04496016666667,-89.3535045,758.574,0.06847367712595845,Illinois,Ogle
17143,40.795171823529415,-89.82006047058822,619.209,0.21744320255216817,Illinois,Peoria
17145,38.115250142857136,-89.34072385714286,441.761,0.02386683389986416,Illinois,Perry
17147,39.9891966,-88.56129190000001,439.202,0.01834463753257306,Illinois,Piatt
17149,39.652944724137924,-91.000384,831.381,0.02537444693151357,Illinois,Pike
17151,37.27961840909091,-88.4865205,368.77,0.0020509825785645463,Illinois,Pope
17153,37.22078682352941,-89.03995217647059,199.185,0.01004033039796923,Illinois,Pulaski
17155,41.19232933333333,-89.3449731111111,160.161,0.005532772613202072,Illinois,Putnam
17157,37.97248670833333,-89.89128462499998,575.5,0.054893890050851206,Illinois,Randolph
17159,38.65133209090909,-88.03161818181816,359.99,0.01610954266586695,Illinois,Richland
17161,41.56070165714286,-90.48509822857145,427.636,0.21115591891977856,Illinois,Rock Island
17163,38.53487481818183,-90.09549086363636,657.759,0.3245860361068814,Illinois,St. Clair
17165,37.83688394736841,-88.51060147368422,379.819,0.02793064122683229,Illinois,Saline
17167,39.74666081481482,-89.55286803703704,868.302,0.23629930858569212,Illinois,Sangamon
17169,40.144757416666664,-90.61265566666667,437.273,0.005422740866512492,Illinois,Schuyler
17171,39.63909825,-90.46923675,250.913,0.005682875331051137,Illinois,Scott
17173,39.350173,-88.83812938461539,758.523,0.03251324769128685,Illinois,Shelby
17175,41.1221788,-89.787225,288.079,0.0050694928266467685,Illinois,Stark
17177,42.47494571874999,-89.6282370625,564.523,0.06189173189217324,Illinois,Stephenson
17179,40.518079166666666,-89.54209833333334,648.974,0.1485462049996688,Illinois,Tazewell
17181,37.447985826086956,-89.3935056521739,413.459,0.029760118736816506,Illinois,Union
17183,40.18478178571429,-87.58826364285714,898.368,0.08866943110365497,Illinois,Vermilion
17185,38.435653423076936,-87.85287257692309,223.252,0.012369807985205124,Illinois,Wabash
17187,40.723386285714284,-90.49346221428573,542.405,0.025726317003844715,Illinois,Warren
17189,38.39925372727272,-89.43107845454547,562.572,0.015671586811684554,Illinois,Washington
17191,38.4479719,-88.4437409,713.814,0.022090658190795094,Illinois,Wayne
17193,38.112890333333326,-88.03268121212123,494.766,0.013492243305339102,Illinois,White
17195,41.739774789473685,-90.02999199999998,684.25,0.09031755844967859,Illinois,Whiteside
17197,41.48968224,-87.84582336,836.908,0.917911893766339,Illinois,Will
17199,37.67402457142857,-88.90308342857142,420.149,0.08757034493393127,Illinois,Williamson
17201,42.45144378571428,-89.13613689285717,513.362,0.48091610193809115,Illinois,Winnebago
17203,40.748022285714285,-89.1910532142857,527.799,0.03847184984275479,Illinois,Woodford
18001,40.73021472222222,-84.83221255555557,339.028,0.04166860804861924,Indiana,Adams
18003,41.12721386956522,-84.96265091304349,657.308,0.44158220565429074,Indiana,Allen
18005,39.22306012499999,-85.86471818750002,406.908,0.07570209390181963,Indiana,Bartholomew
18007,40.594542153846156,-87.3411133846154,406.418,0.007713257217497704,Indiana,Benton
18009,40.44176016666666,-85.28985383333331,165.08,0.01297334296998647,Indiana,Blackford
18011,40.03791533333332,-86.37165355555557,422.913,0.06174518749947574,Indiana,Boone
18013,39.208725,-86.20663074999999,311.981,0.008829803019049303,Indiana,Brown
18015,40.62925699999999,-86.61263107692308,372.224,0.017579141232785273,Indiana,Carroll
18017,40.7100412,-86.3587986,412.155,0.08345303863498918,Indiana,Cass
18019,38.4133892,-85.66953357142854,372.855,0.13275380944366405,Indiana,Clark
18021,39.3585655,-87.10387025,357.542,0.026712123618594617,Indiana,Clay
18023,40.26892533333333,-86.42572899999999,405.07,0.04545962077379333,Indiana,Clinton
18025,38.23010646666667,-86.41876546666666,305.643,0.007567839479080244,Indiana,Crawford
18027,38.72393890909091,-87.10463790909093,429.487,0.03871254451035257,Indiana,Daviess
18029,39.16773847619047,-84.86886890476191,305.034,0.05343073537992567,Indiana,Dearborn
18031,39.2481926923077,-85.57062976923076,372.568,0.03242799243494088,Indiana,Decatur
18033,41.41822825,-84.85291274999999,362.824,0.04447032246171049,Indiana,DeKalb
18035,40.280811299999996,-85.36848549999999,392.124,0.1292341929806384,Indiana,Delaware
18037,38.323782,-86.86060972727273,427.269,0.0633288566195226,Indiana,Dubois
18039,41.66587776,-85.87991136000001,463.17,0.4413827138206361,Indiana,Elkhart
18041,39.65488700000001,-85.15895,215.014,0.03877692516570726,Indiana,Fayette
18043,38.32398428571428,-85.89509814285715,147.935,0.08666778891922654,Indiana,Floyd
18045,40.089439,-87.21000864999999,395.656,0.019118827114176794,Indiana,Fountain
18047,39.4253664117647,-84.98757829411763,384.43,0.017145825409711265,Indiana,Franklin
18049,41.0330106,-86.1209474,368.388,0.021473351359622677,Indiana,Fulton
18051,38.31217747058823,-87.61695388235295,487.486,0.045464114194499854,Indiana,Gibson
18053,40.51867042857143,-85.66572378571426,414.074,0.06422580516913934,Indiana,Grant
18055,39.00882845454546,-86.99346618181818,542.495,0.026068046362131177,Indiana,Greene
18057,40.021676777777785,-86.06596611111111,394.267,0.32149187649137995,Indiana,Hamilton
18059,39.84481075,-85.81832966666667,306.016,0.06384983065005136,Indiana,Hancock
18061,38.109766965517245,-86.07361351724137,484.516,0.036436305486278575,Indiana,Harrison
18063,39.72691266666667,-86.50062722222222,406.911,0.15040756418010007,Indiana,Hendricks
18065,39.949382,-85.3693587,391.876,0.06300941590709706,Indiana,Henry
18067,40.49928659999999,-86.16222769999999,293.057,0.07696741370137955,Indiana,Howard
18069,40.86126725,-85.46460099999999,382.651,0.0288079804726594,Indiana,Huntington
18071,38.92436884615385,-86.0946026923077,509.312,0.05291280075428166,Indiana,Jackson
18073,41.08765093333333,-87.07617633333332,559.625,0.03557097266829487,Indiana,Jasper
18075,40.41569,-84.96879649999998,383.905,0.023093620258967714,Indiana,Jay
18077,38.72078527272727,-85.39466159090908,360.631,0.025966881863270175,Indiana,Jefferson
18079,39.00088755555556,-85.65552522222224,376.583,0.021303859111647862,Indiana,Jennings
18081,39.48801613333333,-86.05497039999999,320.427,0.15888417712521488,Indiana,Johnson
18083,38.71550250000001,-87.50543318749999,516.031,0.04433471770948481,Indiana,Knox
18085,41.20033227272727,-85.86070099999999,531.381,0.10942100086896053,Indiana,Kosciusko
18087,41.74282496428572,-85.43837446428572,379.624,0.03807765289656892,Indiana,LaGrange
18089,41.563936119047625,-87.43861383333333,498.961,0.7039250234953663,Indiana,Lake
18091,41.6429275652174,-86.76127873913045,598.299,0.11738533677840476,Indiana,LaPorte
18093,38.88908333333333,-86.48635255555556,449.168,0.04666395301364236,Indiana,Lawrence
18095,40.16601855555555,-85.7047641111111,451.915,0.12267107097511379,Indiana,Madison
18097,39.78107936842106,-86.13566684210525,396.298,1.1066121168670278,Indiana,Marion
18099,41.3665651,-86.18285549999999,443.629,0.07594184230197902,Indiana,Marshall
18101,38.69583057142857,-86.78315057142856,335.737,0.008967582865559104,Indiana,Martin
18103,40.72786411111111,-86.01212255555555,373.842,0.03710082027120192,Indiana,Miami
18105,39.13831864285714,-86.50401242857143,394.509,0.1393527311108662,Indiana,Monroe
18107,40.01456881818182,-86.93992836363635,504.613,0.0340993215662227,Indiana,Montgomery
18109,39.49650833333333,-86.43495686666665,403.969,0.052511284178047186,Indiana,Morgan
18111,41.021765217391305,-87.48847460869563,401.759,0.014316589857778426,Indiana,Newton
18113,41.39205455555556,-85.49990022222222,410.843,0.0640484210835271,Indiana,Noble
18115,38.955557125000006,-84.958760875,86.14,0.006743814835316269,Indiana,Ohio
18117,38.526075375,-86.44871200000001,398.387,0.018114567858743283,Indiana,Orange
18119,39.3280855,-86.7991026,385.288,0.014808861001903345,Indiana,Owen
18121,39.858762705882356,-87.21006311764707,444.663,0.013095441831053593,Indiana,Parke
18123,38.00603318918919,-86.61952367567565,381.727,0.02281050396212798,Indiana,Perry
18125,38.38358662500001,-87.27596925,334.238,0.01413511802193973,Indiana,Pike
18127,41.55284773684211,-87.06371289473684,418.153,0.20421567307209207,Indiana,Porter
18129,37.95686278571429,-87.9259810714286,409.571,0.03275611762625587,Indiana,Posey
18131,41.009101375,-86.73250375,433.649,0.010169115030289711,Indiana,Pulaski
18133,39.621104,-86.85722311111111,480.528,0.031814022013523555,Indiana,Putnam
18135,40.15294561111111,-84.8970616666667,452.379,0.029074719856703558,Indiana,Randolph
18137,39.10709036363635,-85.26125027272725,446.426,0.03048475944227827,Indiana,Ripley
18139,39.6233476,-85.46194890000001,408.124,0.013750770830211687,Indiana,Rush
18141,41.62964929166667,-86.33817866666669,457.85,0.43907731521547155,Indiana,St. Joseph
18143,38.6726599,-85.72888780000001,190.397,0.025188841437689513,Indiana,Scott
18145,39.477534187500005,-85.826398625,411.147,0.04549210598957237,Indiana,Shelby
18147,37.926569666666666,-87.01416887878787,396.744,0.021198326745137035,Indiana,Spencer
18149,41.32826784615384,-86.66776415384616,309.134,0.02396164746318294,Indiana,Starke
18151,41.711441379310344,-84.92552413793105,308.939,0.036016592322701275,Indiana,Steuben
18153,39.091329555555554,-87.52756450000001,447.142,0.020819752147019917,Indiana,Sullivan
18155,38.81168084,-84.99908532,220.633,0.006880195137804724,Indiana,Switzerland
18157,40.4341357,-86.9417148,499.806,0.20856058020863283,Indiana,Tippecanoe
18159,40.3286,-86.0047675,260.541,0.014198387122773737,Indiana,Tipton
18161,39.617382000000006,-84.84419133333333,161.224,0.007369828338534019,Indiana,Union
18163,37.919295999999996,-87.60396685714285,233.475,0.2607814630826556,Indiana,Vanderburgh
18165,39.887135892857145,-87.50199707142858,256.878,0.014710859056589485,Indiana,Vermillion
18167,39.42737862962963,-87.497182,403.313,0.14816635235526976,Indiana,Vigo
18169,40.89881475,-85.83512441666666,412.434,0.035068310838638615,Indiana,Wabash
18171,40.29635594444445,-87.38009899999999,364.681,0.005671371958107553,Indiana,Warren
18173,38.04831163157895,-87.28793942105263,384.815,0.08641152555115413,Indiana,Warrick
18175,38.544332187500004,-86.06861906250002,513.725,0.01816321601112588,Indiana,Washington
18177,39.844730600000005,-84.86888244,401.74,0.07559069100458818,Indiana,Wayne
18179,40.7330274,-85.2862108,368.087,0.029043775130714107,Indiana,Wells
18181,40.762033200000005,-86.83440446666665,505.125,0.030569172820678045,Indiana,White
18183,41.153354300000004,-85.5520806,335.569,0.03224120734732307,Indiana,Whitley
19001,41.27295766666666,-94.43278133333332,569.271,0.010729274369178334,Iowa,Adair
19003,41.08438928571429,-94.73293985714285,423.439,0.004210720878053095,Iowa,Adams
19005,43.37499837037036,-91.32792807407408,639.082,0.018976526274768375,Iowa,Allamakee
19007,40.616690772727274,-92.8276688181818,497.292,0.01916478505048728,Iowa,Appanoose
19009,41.63064325,-94.894654625,442.961,0.008024354906471598,Iowa,Audubon
19011,42.15292366666666,-92.02587983333332,716.265,0.041509194496306925,Iowa,Benton
19013,42.44857749999999,-92.338356,565.769,0.2795337627005622,Iowa,Black Hawk
19015,42.06124657142857,-93.88153742857142,571.569,0.03333413868283021,Iowa,Boone
19017,42.8011214,-92.3652286,435.477,0.04682967063907413,Iowa,Bremer
19019,42.412527833333336,-91.79642283333334,571.02,0.028491155143214285,Iowa,Buchanan
19021,42.770269600000006,-95.10369139999999,574.915,0.08212251246678687,Iowa,Buena Vista
19023,42.71950542857143,-92.75640742857142,580.131,0.023904508436294068,Iowa,Butler
19025,42.41435188888889,-94.70284422222223,569.968,0.026681389933514644,Iowa,Calhoun
19027,41.96195085714286,-94.75819442857143,569.437,0.05225232760551292,Iowa,Carroll
19029,41.31245966666667,-94.96599555555555,564.269,0.019910536952790797,Iowa,Cass
19031,41.797241285714286,-91.16587214285714,579.436,0.02612073911942095,Iowa,Cedar
19033,43.13256950000001,-93.18229566666668,568.313,0.082205723361294,Iowa,Cerro Gordo
19035,42.710406285714285,-95.692399,576.906,0.019656633946511036,Iowa,Cherokee
19037,43.03828199999999,-92.238975,504.38,0.0195037886871941,Iowa,Chickasaw
19039,41.08410942857143,-93.83504085714286,431.167,0.01327900556518838,Iowa,Clarke
19041,43.11701860000001,-95.1983902,567.238,0.027596784500463788,Iowa,Clay
19043,42.844539049999995,-91.13471854999999,778.539,0.025895229102663245,Iowa,Clayton
19045,41.86139885714285,-90.32278409523809,694.915,0.08073485172407965,Iowa,Clinton
19047,42.012298428571434,-95.35727714285714,714.19,0.04844450127465246,Iowa,Crawford
19049,41.68590155555555,-94.06263288888888,588.447,0.16301118861655772,Iowa,Dallas
19051,40.63822131818181,-92.35606877272727,502.188,0.010616989838227776,Iowa,Davis
19053,40.593836923076914,-93.76727535897436,531.881,0.008285790395539814,Iowa,Decatur
19055,42.41247933333333,-91.3655685,577.756,0.03636277803443644,Iowa,Delaware
19057,40.897544749999994,-91.09948904999999,416.123,0.07226038030448248,Iowa,Des Moines
19059,43.48164426923077,-95.11424850000003,380.606,0.0339660100194641,Iowa,Dickinson
19061,42.510939115384616,-90.7266886923077,608.305,0.2372004338647883,Iowa,Dubuque
19063,43.473160888888884,-94.73694527777778,395.883,0.019043333829005214,Iowa,Emmet
19065,42.833577,-91.84396666666667,730.811,0.025033825435148413,Iowa,Fayette
19067,43.029567,-92.8365944,500.632,0.02359355822163433,Iowa,Floyd
19069,42.767816599999996,-93.3097726,581.972,0.017780123054119173,Iowa,Franklin
19071,40.667066852941176,-95.70957467647061,511.15,0.009457467275038017,Iowa,Fremont
19073,42.06094914285715,-94.380252,569.574,0.012456805720929554,Iowa,Greene
19075,42.361673875,-92.773556125,501.858,0.02030078486602398,Iowa,Grundy
19077,41.75621493333333,-94.6021888,590.62,0.018728383656665414,Iowa,Guthrie
19079,42.38384033333333,-93.68411144444445,576.751,0.02421499906639903,Iowa,Hamilton
19081,43.0469724,-93.7818286,571.005,0.020735453010245992,Iowa,Hancock
19083,42.361588375,-93.26893799999999,569.307,0.02765991704867391,Iowa,Hardin
19085,41.66000103124999,-95.99395018749999,696.848,0.02796875698935166,Iowa,Harrison
19087,40.99715111111111,-91.50353355555556,434.328,0.04698422004677144,Iowa,Henry
19089,43.46855594444444,-92.30638922222222,473.248,0.012555198380856131,Iowa,Howard
19091,42.750174,-94.2544144,434.352,0.017807464590917185,Iowa,Humboldt
19093,42.40614911111111,-95.50759166666666,431.508,0.012054387149995347,Iowa,Ida
19095,41.627736000000006,-92.08330083333334,586.457,0.023436597136122745,Iowa,Iowa
19097,42.19645106896552,-90.38987986206895,636.039,0.03670294651457735,Iowa,Jackson
19099,41.69712975,-93.110359,730.42,0.055982306538788905,Iowa,Jasper
19101,41.087811428571435,-91.93191557142858,435.51,0.01591638672496341,Iowa,Jefferson
19103,41.587658375000004,-91.5746705,614.04,0.2514727600968366,Iowa,Johnson
19105,42.108865,-91.13139957142857,575.621,0.055741099732895344,Iowa,Jones
19107,41.36111671428572,-92.22904357142856,579.179,0.013355686915099071,Iowa,Keokuk
19109,43.35871418749999,-94.24946137500001,972.72,0.02396608869820778,Iowa,Kossuth
19111,40.569896666666665,-91.39268227777778,517.518,0.050957821225663544,Iowa,Lee
19113,42.07266499999999,-91.5314812857143,716.88,0.35652035778557,Iowa,Linn
19115,41.19716777777778,-91.16856016666667,401.766,0.02180696455806847,Iowa,Louisa
19117,41.04865028571429,-93.32772485714285,430.593,0.008789573914111724,Iowa,Lucas
19119,43.40334230303031,-96.43356572727272,587.65,0.02438642961432433,Iowa,Lyon
19121,41.288546,-94.0143105,561.006,0.01751033112313033,Iowa,Madison
19123,41.359956,-92.69024428571427,570.863,0.033034218407366554,Iowa,Mahaska
19125,41.33023225,-93.185211,554.534,0.05095787696375065,Iowa,Marion
19127,42.03595833333333,-92.96078583333333,572.501,0.09097632917496654,Iowa,Marshall
19129,40.99838681818182,-95.75888627272725,437.437,0.025853710016654825,Iowa,Mills
19131,43.45176811764707,-92.77896335294118,469.133,0.018163798353290572,Iowa,Mitchell
19133,42.00514654545455,-96.16675404545454,694.072,0.010160967041971183,Iowa,Monona
19135,41.04876742857142,-92.90193285714285,433.715,0.011510019500154147,Iowa,Monroe
19137,41.085373,-95.12327314285713,424.097,0.010975154377579253,Iowa,Montgomery
19139,41.45802585714286,-91.07513907142858,437.469,0.07108041311192426,Iowa,Muscatine
19141,43.1174004,-95.5771258,573.035,0.03316008983195196,Iowa,O'Brien
19143,43.47585409999999,-95.55313085,398.684,0.013446639543525003,Iowa,Osceola
19145,40.60098007142857,-95.1550417857143,534.942,0.030083480521682183,Iowa,Page
19147,43.08205883333333,-94.59999616666666,563.844,0.015696597808474374,Iowa,Palo Alto
19149,42.75419619999999,-96.50091064999998,862.893,0.07187601283096225,Iowa,Plymouth
19151,42.70454216666667,-94.60008649999999,577.241,0.013937379388509922,Iowa,Pocahontas
19153,41.618792181818186,-93.503768,573.795,0.8550580408475097,Iowa,Polk
19155,41.291637458333334,-95.81780766666667,950.28,0.15116292648886087,Iowa,Pottawattamie
19157,41.627179000000005,-92.47127566666666,584.932,0.02515255481819187,Iowa,Poweshiek
19159,40.60310238095239,-94.24784761904762,535.498,0.004346540079784539,Iowa,Ringgold
19161,42.421107899999996,-95.0970731,575.012,0.020473326248163577,Iowa,Sac
19163,41.59066083333333,-90.5933801111111,458.089,0.26602285494271966,Iowa,Scott
19165,41.6156411,-95.2573601,590.779,0.019513386942654646,Iowa,Shelby
19167,43.103837750000004,-96.41721675000001,768.332,0.09784440542188794,Iowa,Sioux
19169,42.01134614285714,-93.41469085714286,572.818,0.16960700777220084,Iowa,Story
19171,42.09846842857143,-92.53288314285716,721.011,0.04075777579647495,Iowa,Tama
19173,40.600657869565225,-94.6782312173913,531.902,0.011577051927452824,Iowa,Taylor
19175,41.070854833333335,-94.24227466666666,423.645,0.01718063085285654,Iowa,Union
19177,40.64914716,-91.93173236000001,484.789,0.008955179885949188,Iowa,Van Buren
19179,41.07440833333334,-92.40982733333334,431.833,0.06550082931819744,Iowa,Wapello
19181,41.30757285714286,-93.504829,569.827,0.06736161975467977,Iowa,Warren
19183,41.30775711111111,-91.69485633333332,568.835,0.034091798325446156,Iowa,Washington
19185,40.61610855555556,-93.39480294444444,525.437,0.00801753187938837,Iowa,Wayne
19187,42.4540183,-94.2095594,715.619,0.0886818507911541,Iowa,Webster
19189,43.47384089473684,-93.69768942105263,400.489,0.023329999783420832,Iowa,Winnebago
19191,43.46752811764706,-91.73769388235296,689.868,0.022992141814428615,Iowa,Winneshiek
19193,42.404800657142864,-96.28900854285715,872.834,0.27881045371382596,Iowa,Woodbury
19195,43.4669604,-93.29374206666667,400.123,0.008467142199259545,Iowa,Worth
19197,42.72034542857142,-93.76915528571429,580.422,0.031335061925833026,Iowa,Wright
20001,37.854729400000004,-95.2597018,500.303,0.008026614572574801,Kansas,Allen
20003,38.178877799999995,-95.337995,579.646,0.009838754144701192,Kansas,Anderson
20005,39.55448507692308,-95.18652476923079,431.172,0.021789540052736762,Kansas,Atchison
20007,37.12314981481482,-98.70061133333333,1134.073,0.004784427365078271,Kansas,Barber
20009,38.49341233333333,-98.71362922222222,895.4,0.038762485379572484,Kansas,Barton
20011,37.861716303030306,-94.65844857575759,635.471,0.012150588595240649,Kansas,Bourbon
20013,39.8496722,-95.63459259999999,570.872,0.0153061211457294,Kansas,Brown
20015,37.86374022222222,-96.76886677777777,1429.863,0.07640086953844558,Kansas,Butler
20017,38.31483037500001,-96.553005375,773.06,0.00418626906896655,Kansas,Chase
20019,37.03088021052631,-96.1999622631579,638.881,0.0014291989151972515,Kansas,Chautauqua
20021,37.10181739583333,-94.720158875,587.568,0.028296791971506547,Kansas,Cherokee
20023,39.88521056521739,-101.80102495652176,1019.887,0.005484138208679194,Kansas,Cheyenne
20025,37.13521315789474,-99.7893687894737,974.632,0.002741843144819012,Kansas,Clark
20027,39.32788825,-97.165368,645.301,0.009447051216024124,Kansas,Clay
20029,39.51929258333333,-97.60235833333333,715.342,0.013260965835901563,Kansas,Cloud
20031,38.27737328571429,-95.70171742857144,626.947,0.0076815885052597555,Kansas,Coffey
20033,37.063506555555556,-99.29798094444443,788.298,0.0009634458962163148,Kansas,Comanche
20035,37.04246606896551,-96.87034210344827,1125.75,0.03343572480580876,Kansas,Cowley
20037,37.48826831428571,-94.6704572857143,589.756,0.05895343440860017,Kansas,Crawford
20039,39.963433558823525,-100.45519223529409,893.517,0.005652785865375838,Kansas,Decatur
20041,38.891667545454546,-97.09477863636363,847.072,0.01814379428791959,Kansas,Dickinson
20043,39.84601186206897,-95.07948737931032,393.405,0.010534760420929736,Kansas,Doniphan
20045,38.89149745454546,-95.2604080909091,455.871,0.12047570265589772,Kansas,Douglas
20047,37.903879636363634,-99.27737163636363,621.894,0.003913415018505097,Kansas,Edwards
20049,37.442355,-96.244153125,644.265,0.0010494670243641295,Kansas,Elk
20051,38.883552,-99.35733171428569,899.912,0.05733983252904562,Kansas,Ellis
20053,38.6640005,-98.27366749999999,715.847,0.015084541593569846,Kansas,Ellsworth
20055,38.062066300000005,-100.6226243,1301.967,0.11879117699976849,Kansas,Finney
20057,37.597830249999994,-99.99305250000002,1098.271,0.126366536527154,Kansas,Ford
20059,38.520914,-95.35797383333335,571.756,0.027114531624331015,Kansas,Franklin
20061,39.06210542857143,-96.80238085714286,384.618,0.023019122338298115,Kansas,Geary
20063,38.98808466666666,-100.46917516666667,1071.665,0.007485825052206798,Kansas,Gove
20065,39.29539749999999,-99.88459775000001,898.522,0.0034062164826552848,Kansas,Graham
20067,37.5274312,-101.35160060000001,574.8,0.018530700554177187,Kansas,Grant
20069,37.803962375,-100.38502937500002,868.867,0.009436933430078058,Kansas,Gray
20071,38.531868318181814,-101.97988813636366,778.45,0.002081652689955506,Kansas,Greeley
20073,37.938373090909096,-96.23720981818182,1143.3,0.004906633323827846,Kansas,Greenwood
20075,38.00173194117647,-101.84125770588234,996.508,0.00304907483010817,Kansas,Hamilton
20077,37.070821,-98.0925649375,801.269,0.007638889778642556,Kansas,Harper
20079,38.04931542857143,-97.41943014285714,539.754,0.041876084799900806,Kansas,Harvey
20081,37.54955171428571,-100.836728,577.521,0.0067490472272737105,Kansas,Haskell
20083,38.120503875,-99.900267,859.992,0.0033709909520593015,Kansas,Hodgeman
20085,39.48462522222223,-95.75019466666667,656.217,0.015665457727716613,Kansas,Jackson
20087,39.189244,-95.42055277777779,532.574,0.016181761238999455,Kansas,Jefferson
20089,39.90537446153846,-98.20723153846153,909.781,0.0013370646796180042,Kansas,Jewell
20091,38.87282308695653,-94.69127195652175,473.375,0.6735528963834968,Kansas,Johnson
20093,38.023095,-101.322074375,870.543,0.007757378431357975,Kansas,Kearny
20095,37.50158155555555,-98.08687533333332,863.363,0.0077060354720390615,Kansas,Kingman
20097,37.50325245454545,-99.30701090909092,722.639,0.003040675578123894,Kansas,Kiowa
20099,37.08744265,-95.28372965,645.295,0.020512891227146286,Kansas,Labette
20101,38.409673,-100.46607750000003,717.455,0.0015875576144335768,Kansas,Lane
20103,39.2488185,-94.96537325,462.831,0.09821003334936908,Kansas,Leavenworth
20105,39.080407533333336,-98.26479180000001,719.396,0.0012328891179240865,Kansas,Lincoln
20107,38.229452551724144,-94.64482131034481,594.059,0.006726280800029249,Kansas,Linn
20109,38.948175428571425,-101.13215542857142,1072.994,0.005792489783634135,Kansas,Logan
20111,38.42145057142857,-96.18228785714284,847.474,0.05943199215232044,Kansas,Lyon
20113,38.348128714285714,-97.73411971428573,898.274,0.03008715284686211,Kansas,McPherson
20115,38.3916834,-97.0754228,944.29,0.010180600698071265,Kansas,Marion
20117,39.930578999999994,-96.4980616666667,900.183,0.008823400997656945,Kansas,Marshall
20119,37.18312154545454,-100.33861213636364,978.088,0.006897356119670391,Kansas,Meade
20121,38.54516550000001,-94.65703624999999,575.661,0.0243536014321746,Kansas,Miami
20123,39.378783625000004,-98.06967412499998,701.792,0.004192815406867505,Kansas,Mitchell
20125,37.063257393939395,-95.7387724242424,643.527,0.027046558671139104,Kansas,Montgomery
20127,38.709249416666665,-96.65971558333332,695.279,0.004181864705100799,Kansas,Morris
20129,37.113205888888885,-101.94599800000002,729.731,0.003191238306110124,Kansas,Morton
20131,39.90919803846154,-96.06479184615388,717.427,0.023041084412598313,Kansas,Nemaha
20133,37.56658271428571,-95.27492628571429,571.472,0.015968258663054607,Kansas,Neosho
20135,38.46520311111111,-99.86768566666666,1074.75,0.0061100522624769355,Kansas,Ness
20137,39.947238791666656,-99.86664129166667,878.134,0.030261488355221435,Kansas,Norton
20139,38.657425,-95.670228375,705.518,0.011106452778883062,Kansas,Osage
20141,39.29264307142858,-98.64953321428571,892.504,0.001506044332582121,Kansas,Osborne
20143,39.19665522222222,-97.74297966666666,720.733,0.005172409242054605,Kansas,Ottawa
20145,38.18180475,-99.23624000000001,754.263,0.015860709934251437,Kansas,Pawnee
20147,39.95545235714286,-99.31811985714288,885.877,0.009708720258751233,Kansas,Phillips
20149,39.332714533333345,-96.31221013333334,841.022,0.017592446532905155,Kansas,Pottawatomie
20151,37.713240125000006,-98.67229325000001,735.045,0.011833049685335413,Kansas,Pratt
20153,39.95023160000001,-101.15567244,1069.416,0.004749978513462726,Kansas,Rawlins
20155,37.9106701,-98.11794719999999,1255.346,0.11049565791331685,Kansas,Reno
20157,39.97299412499999,-97.67408237500001,717.371,0.00549059601847649,Kansas,Republic
20159,38.36228283333333,-98.29329899999999,726.237,0.00867202100589646,Kansas,Rice
20161,39.230330764705876,-96.6818795882353,609.771,0.09092710643404679,Kansas,Riley
20163,39.295763125,-99.39287125,890.533,0.007842327789825163,Kansas,Rooks
20165,38.58072666666667,-99.3104955,717.763,0.004712304117842417,Kansas,Rush
20167,38.882060375,-98.76134775000001,886.26,0.01139520527820943,Kansas,Russell
20169,38.8307585,-97.788967375,720.225,0.05274279377272624,Kansas,Saline
20171,38.4286665,-100.9202125,717.544,0.008218857690907298,Kansas,Scott
20173,37.673840142857145,-97.5899272857143,997.512,0.6417082488399657,Kansas,Sedgwick
20175,37.05184686363637,-100.85072204545455,639.497,0.07405504627570425,Kansas,Seward
20177,39.06395388888888,-95.739493,544.016,0.1774854788663569,Kansas,Shawnee
20179,39.4226145,-100.44465666666667,895.957,0.008208678138561274,Kansas,Sheridan
20181,39.394819999999996,-101.8500240625,1056.066,0.01069497821319612,Kansas,Sherman
20183,39.95410444444445,-98.76096033333334,895.465,0.002630052824643617,Kansas,Smith
20185,37.99944555555555,-98.75343877777777,792.046,0.004737078433205035,Kansas,Stafford
20187,37.54647331818182,-101.92760300000003,680.345,0.0036517141831802313,Kansas,Stanton
20189,37.133545549999994,-101.37405720000002,727.293,0.010960819938934647,Kansas,Stevens
20191,37.08690908,-97.58184492000001,1181.941,0.018231793691097085,Kansas,Sumner
20193,39.32677533333334,-100.89396955555554,1074.687,0.016892268099861038,Kansas,Thomas
20195,38.94568942857143,-99.75558000000001,889.478,0.0051061112907631245,Kansas,Trego
20197,38.97722686666667,-96.26042593333334,794.302,0.007631194187450591,Kansas,Wabaunsee
20199,38.85128264285715,-101.89679107142857,913.652,0.0037203661976788504,Kansas,Wallace
20201,39.90426956666666,-97.14588316666668,894.756,0.006974819850722879,Kansas,Washington
20203,38.45747433333333,-101.45598322222222,718.568,0.002906387033999611,Kansas,Wichita
20205,37.53801250000001,-95.81602450000001,570.418,0.006618682526478684,Kansas,Wilson
20207,37.864839499999995,-95.81397016666665,497.82,0.0015335021395892906,Kansas,Woodson
20209,39.12794668421052,-94.69117110526315,151.6,0.3114850593381225,Kansas,Wyandotte
21001,37.14862418181818,-85.26316563636364,405.283,0.018642484296977423,Kentucky,Adair
21003,36.664744631578955,-86.15764784210528,344.338,0.019515274984481606,Kentucky,Allen
21005,37.98498122222222,-85.02536977777778,201.832,0.012715235388281523,Kentucky,Anderson
21007,37.07073657894737,-89.08157215789474,246.659,0.003873031917143708,Kentucky,Ballard
21009,37.01767111111111,-85.98791066666666,487.541,0.0508243102410266,Kentucky,Barren
21011,38.06370853333333,-83.73191386666666,278.792,0.006663704020353782,Kentucky,Bath
21013,36.77924641666666,-83.60145116666665,359.0,0.032866034976966906,Kentucky,Bell
21015,39.00656237931034,-84.75322310344826,246.359,0.10618418758352113,Kentucky,Boone
21017,38.228306700000005,-84.24241090000001,289.719,0.014014801992951118,Kentucky,Bourbon
21019,38.35048470588235,-82.63489300000002,159.864,0.03487222695390029,Kentucky,Boyd
21021,37.619262875000004,-84.850598125,180.169,0.022937068209408384,Kentucky,Boyle
21023,38.73593611764706,-84.07941323529411,205.612,0.003701305437946278,Kentucky,Bracken
21025,37.50237926666667,-83.26540593333333,492.413,0.00768027703120571,Kentucky,Breathitt
21027,37.8205847368421,-86.50818105263158,567.172,0.01085475588661581,Kentucky,Breckinridge
21029,38.00243638461539,-85.69240376923076,297.024,0.06979242519151237,Kentucky,Bullitt
21031,37.23378478571429,-86.68951749999998,426.088,0.014707965595550078,Kentucky,Butler
21033,37.2310986,-87.850639,344.791,0.013503611054872815,Kentucky,Caldwell
21035,36.57238377272727,-88.20458413636364,385.021,0.041962178347990806,Kentucky,Calloway
21037,38.990474333333346,-84.38246886666667,151.308,0.07084069029776066,Kentucky,Campbell
21039,36.86988053846154,-89.05099592307693,189.434,0.004883753065421407,Kentucky,Carlisle
21041,38.69501831578948,-85.16762647368421,128.569,0.009096296198534328,Kentucky,Carroll
21043,38.31999413333334,-83.0945838,409.496,0.016929380483573443,Kentucky,Carter
21045,37.29733876923078,-84.94066815384616,444.23,0.012232442145249944,Kentucky,Casey
21047,36.79759247368421,-87.50798257894738,717.503,0.07436733435635157,Kentucky,Christian
21049,37.957260624999996,-84.14268012500001,252.463,0.022755608585885365,Kentucky,Clark
21051,37.1510565,-83.64130864285717,469.247,0.024539601310509133,Kentucky,Clay
21053,36.69938625,-85.13578841666667,197.246,0.010192201963654567,Kentucky,Clinton
21055,37.39803138888888,-88.10322594444445,359.952,0.006573511862106878,Kentucky,Crittenden
21057,36.81774755555555,-85.3556688888889,305.182,0.0058359822058926,Kentucky,Cumberland
21059,37.80365546666667,-87.10518346666665,458.346,0.0836189308125291,Kentucky,Daviess
21061,37.182921900000004,-86.22887180000001,302.883,0.008333753297572495,Kentucky,Edmonson
21063,38.13792877777778,-83.07501066666667,234.315,0.01529594698163849,Kentucky,Elliott
21065,37.673616333333335,-83.93350055555555,253.078,0.011877127324895629,Kentucky,Estill
21067,38.049378,-84.48062136363636,283.649,0.4352566019816239,Kentucky,Fayette
21069,38.33968557142857,-83.7187417142857,348.542,0.00798988983447476,Kentucky,Fleming
21071,37.51452023076923,-82.74992184615384,393.345,0.02741022760790465,Kentucky,Floyd
21073,38.264989777777785,-84.82589966666667,207.747,0.03674681590601009,Kentucky,Franklin
21075,36.54088125,-89.5128928,205.504,0.008201984019038969,Kentucky,Fulton
21077,38.770524615384616,-84.86097253846154,101.234,0.006045793290800672,Kentucky,Gallatin
21079,37.68393236363636,-84.58859827272727,230.077,0.013976074403700241,Kentucky,Garrard
21081,38.690222857142864,-84.63025621428572,257.965,0.015068234504843219,Kentucky,Grant
21083,36.57991644444444,-88.61017383333333,551.743,0.04065336798448594,Kentucky,Graves
21085,37.4559782,-86.33583186666667,496.698,0.0230899877336831,Kentucky,Grayson
21087,37.28992636363636,-85.56697718181817,286.034,0.012552773741507173,Kentucky,Green
21089,38.63320041666666,-82.88089855555556,344.397,0.029331383400718773,Kentucky,Greenup
21091,37.8950544,-86.78043648,187.652,0.007585905595947812,Kentucky,Hancock
21093,37.77319911111111,-85.96004238888888,623.278,0.09977998607267426,Kentucky,Hardin
21095,36.894637836363636,-83.04360769090907,465.828,0.023036272661993186,Kentucky,Harlan
21097,38.415966000000004,-84.33146664285712,306.364,0.011359416634337531,Kentucky,Harrison
21099,37.30512326666666,-85.92285160000002,412.086,0.019314321783134143,Kentucky,Hart
21101,37.873709934426216,-87.62230470491805,436.669,0.05262288477821722,Kentucky,Henderson
21103,38.44618972727273,-85.06775736363637,286.276,0.01295643785407569,Kentucky,Henry
21105,36.645731210526314,-89.02081642105263,242.274,0.004087070462687833,Kentucky,Hickman
21107,37.31326407692308,-87.55316599999999,541.995,0.04397898051805731,Kentucky,Hopkins
21109,37.47034461538462,-83.94408238461538,345.201,0.017565819821771265,Kentucky,Jackson
21111,38.180294268292684,-85.76444456097562,380.416,0.9189288384688294,Kentucky,Jefferson
21113,37.843056357142856,-84.64562692857143,172.116,0.04468537157055496,Kentucky,Jessamine
21115,37.82930211111111,-82.83449644444444,261.953,0.018892778922935716,Kentucky,Johnson
21117,38.95468613333334,-84.53197113333334,160.25,0.1356119226930267,Kentucky,Kenton
21119,37.37560314285714,-82.90322828571428,351.518,0.014385529934678088,Kentucky,Knott
21121,36.885794,-83.83827289999999,386.297,0.031948822315476355,Kentucky,Knox
21123,37.54271280000001,-85.6414368,261.519,0.013858068399261137,Kentucky,Larue
21125,37.07459484615384,-84.13513615384615,433.953,0.0623383631570258,Kentucky,Laurel
21127,38.042541769230766,-82.65296773076922,415.595,0.008714669008281791,Kentucky,Lawrence
21129,37.577819266666665,-83.76488173333334,208.857,0.016018576250001155,Kentucky,Lee
21131,37.062886999999996,-83.42785781250001,400.844,0.005440661898255117,Kentucky,Leslie
21133,37.041327675000005,-82.83822282499997,337.914,0.013253559761474208,Kentucky,Letcher
21135,38.596192206896546,-83.38492413793104,482.836,0.012751262811796463,Kentucky,Lewis
21137,37.41163090909091,-84.67303327272727,334.095,0.01501111330364605,Kentucky,Lincoln
21139,37.18530858064516,-88.43173770967744,313.127,0.006803653648591123,Kentucky,Livingston
21141,36.79165347058824,-86.842833,552.131,0.029918380602939835,Kentucky,Logan
21143,37.06357122222223,-88.12692255555555,213.84,0.005301566454448558,Kentucky,Lyon
21145,37.094727125,-88.732067625,248.744,0.06049654369928993,Kentucky,McCracken
21147,36.772888461538464,-84.4117666923077,426.803,0.009941609673793927,Kentucky,McCreary
21149,37.56549585714286,-87.27493435714287,252.474,0.009694377368642808,Kentucky,McLean
21151,37.691123125000004,-84.2955695,437.293,0.09047062152137145,Kentucky,Madison
21153,37.615859736842104,-83.05006231578946,308.444,0.009961115343847322,Kentucky,Magoffin
21155,37.54610984615385,-85.26513761538462,343.008,0.022633551615759938,Kentucky,Marion
21157,36.90298377777778,-88.36642799999998,301.253,0.023508239443528575,Kentucky,Marshall
21159,37.83286046666667,-82.48591900000001,229.605,0.01032966712964406,Kentucky,Martin
21161,38.64116110526316,-83.77370763157893,240.128,0.009313257489067075,Kentucky,Mason
21163,38.035728500000005,-86.28048973333331,305.423,0.017613390150433304,Kentucky,Meade
21165,37.99229596153846,-83.69547330769231,203.585,0.0036375762478869623,Kentucky,Menifee
21167,37.84147299999999,-84.7959651875,248.797,0.016668580663167773,Kentucky,Mercer
21169,37.058230333333334,-85.65170400000001,289.645,0.009884929223413481,Kentucky,Metcalfe
21171,36.66310633333334,-85.68121099999998,329.373,0.018126334724522575,Kentucky,Monroe
21173,38.06928,-83.932913,197.366,0.02355816873909239,Kentucky,Montgomery
21175,37.93135291666666,-83.17381816666666,381.127,0.007028245603041108,Kentucky,Morgan
21177,37.18831841666667,-87.12432483333335,467.079,0.034912206605770844,Kentucky,Muhlenberg
21179,37.79414642857142,-85.45143542857144,417.512,0.051107764267144175,Kentucky,Nelson
21181,38.346286,-84.00662887499999,195.171,0.0047721212272752896,Kentucky,Nicholas
21183,37.490369375,-86.8187864375,587.274,0.023563108257939978,Kentucky,Ohio
21185,38.41215557142857,-85.47641335714286,187.218,0.05830152588880634,Kentucky,Oldham
21187,38.49992436363636,-84.84746518181818,351.103,0.005049764719450966,Kentucky,Owen
21189,37.40071911111111,-83.66272855555556,197.407,0.004417835049397336,Kentucky,Owsley
21191,38.7790028,-84.3212182,277.157,0.007445694126318961,Kentucky,Pendleton
21193,37.17381656,-83.24673148000002,339.67,0.02416765321504775,Kentucky,Perry
21195,37.4741176969697,-82.35839845454545,786.833,0.04371958574680694,Kentucky,Pike
21197,37.79343377777778,-83.793195,178.979,0.010080873800494397,Kentucky,Powell
21199,37.121761,-84.66253107142859,658.408,0.03816164555068646,Kentucky,Pulaski
21201,38.499117,-84.031297,99.911,0.0020748058477008603,Kentucky,Robertson
21203,37.37656611111112,-84.33944300000002,316.545,0.014014957980607635,Kentucky,Rockcastle
21205,38.1809867,-83.41175369999999,279.795,0.018315916598244435,Kentucky,Rowan
21207,36.99964991666667,-85.06621416666667,253.657,0.014969610059140787,Kentucky,Russell
21209,38.29367493333333,-84.58446933333333,281.766,0.04497412005089226,Kentucky,Scott
21211,38.210342000000004,-85.2684178,379.636,0.05784139602091224,Kentucky,Shelby
21213,36.70114970588235,-86.54831811764706,234.204,0.01542992098039748,Kentucky,Simpson
21215,38.035699375,-85.341630625,186.677,0.016134104092923346,Kentucky,Spencer
21217,37.392408833333334,-85.35363166666666,266.327,0.02277829678348639,Kentucky,Taylor
21219,36.73809823076923,-87.19797553846153,374.496,0.010937396751921721,Kentucky,Todd
21221,36.76515524999999,-87.89966233333332,441.433,0.010074377117344055,Kentucky,Trigg
21223,38.619203625000004,-85.38321875,151.648,0.004728642367613318,Kentucky,Trimble
21225,37.713714113636364,-88.00788718181816,342.849,0.018930465551037008,Kentucky,Union
21227,36.999994083333334,-86.40606008333334,541.6,0.18944719138894064,Kentucky,Warren
21229,37.7550741,-85.19725940000001,297.266,0.011879422184317697,Kentucky,Washington
21231,36.74752686666667,-84.80092246666666,458.17,0.01265080634254256,Kentucky,Wayne
21233,37.45288342857143,-87.73859264285716,331.943,0.014283770779184399,Kentucky,Webster
21235,36.70903538461538,-84.07461738461538,437.83,0.03748508495663905,Kentucky,Whitley
21237,37.7210803,-83.44958040000002,222.171,0.004572548150222133,Kentucky,Wolfe
21239,38.03828933333333,-84.72032722222224,188.784,0.018286126141723005,Kentucky,Woodford
22001,30.278091999999997,-92.43776799999999,655.119,0.10673129045320504,Louisiana,Acadia
22003,30.62140892307692,-92.84663215384617,761.847,0.058857064506042514,Louisiana,Allen
22005,30.184892166666668,-90.86960733333335,289.981,0.15460934325695164,Louisiana,Ascension
22007,29.891096333333337,-91.1122768,338.658,0.028170321286658705,Louisiana,Assumption
22009,31.1037772,-91.99226246666669,832.434,0.05792654290494158,Louisiana,Avoyelles
22011,30.59631337500001,-93.46658812499999,1157.342,0.036678454875180365,Louisiana,Beauregard
22013,32.338667,-93.08992500000001,811.268,0.02092622151269463,Louisiana,Bienville
22015,32.6393846923077,-93.6264308846154,840.057,0.15702253499018745,Louisiana,Bossier
22017,32.62198077142857,-93.96497984285718,878.539,0.349232040669413,Louisiana,Caddo
22019,30.246593807692307,-93.48849815384614,1063.659,0.2870976374910556,Louisiana,Calcasieu
22021,32.06994250000001,-92.09578110000001,529.425,0.015381886177435624,Louisiana,Caldwell
22023,29.80788,-93.37254117073172,1284.887,0.007936038490902167,Louisiana,Cameron
22025,31.609973807692306,-91.8005898076923,708.03,0.016089389757703063,Louisiana,Catahoula
22027,32.92400280769231,-92.97178976923077,754.878,0.020715296500422312,Louisiana,Claiborne
22029,31.41909142666666,-91.55785522666666,696.92,0.02316072089672601,Louisiana,Concordia
22031,32.05751476000001,-93.82987116,875.579,0.03425137014105881,Louisiana,De Soto
22033,30.45540311764706,-91.09590382352941,455.374,0.5489163909939528,Louisiana,East Baton Rouge
22035,32.78536559999999,-91.15153843333331,420.704,0.01939601123569084,Louisiana,East Carroll
22037,30.83811945,-91.1212039,453.41,0.059715562728091774,Louisiana,East Feliciana
22039,30.616427,-92.50799025000002,662.378,0.04921792776621302,Louisiana,Evangeline
22041,32.105667266666664,-91.65830486666665,624.585,0.045633123944225994,Louisiana,Franklin
22043,31.609162400000006,-92.5873564,643.026,0.019472621333868595,Louisiana,Grant
22045,29.562813354838703,-91.86739472580648,574.111,0.10078824099729125,Louisiana,Iberia
22047,30.271695842105267,-91.32769915789474,618.627,0.050288007964646345,Louisiana,Iberville
22049,32.33744363636364,-92.5172181818182,569.183,0.0310979776126866,Louisiana,Jackson
22051,29.800294323529414,-90.13238026470589,295.632,0.6220071144115517,Louisiana,Jefferson
22053,30.340490192307698,-92.78504123076922,651.328,0.045629965319071514,Louisiana,Jefferson Davis
22055,30.170967769230774,-92.04270776923077,268.72,0.3235320984516598,Louisiana,Lafayette
22057,29.299998161016955,-90.21646093220339,1068.214,0.12932379990102025,Louisiana,Lafourche
22059,31.606142545454542,-92.22481845454546,624.684,0.023190050283286266,Louisiana,LaSalle
22061,32.59316461538462,-92.62195769230769,471.742,0.0651025441543136,Louisiana,Lincoln
22063,30.366120923076917,-90.70905823076922,648.169,0.15419888721245106,Louisiana,Livingston
22065,32.38184552941176,-91.1012021764706,624.437,0.028799977424738298,Louisiana,Madison
22067,32.85762680952381,-91.71790852380951,794.934,0.031750692240517533,Louisiana,Morehouse
22069,31.74744404545454,-93.14257672727273,1252.25,0.05344918710893873,Louisiana,Natchitoches
22071,30.06165550757575,-89.75992909848486,169.423,0.46587532968258405,Louisiana,Orleans
22073,32.494659000000006,-92.17791133333333,610.406,0.2532170867115954,Louisiana,Ouachita
22075,29.315867036866358,-89.44286377419355,779.911,0.030746967733495303,Louisiana,Plaquemines
22077,30.725469176470583,-91.56910782352941,557.346,0.03767594333097814,Louisiana,Pointe Coupee
22079,31.175027157894736,-92.541063,1317.962,0.16751316609329478,Louisiana,Rapides
22081,32.12501186666667,-93.39507806666667,389.09,0.01642753750844715,Louisiana,Red River
22083,32.43130641176471,-91.70990288235294,559.043,0.0360950376084952,Louisiana,Richland
22085,31.431411555555556,-93.61822749999999,866.659,0.03710806149992716,Louisiana,Sabine
22087,29.87338708391609,-89.49467758041955,377.517,0.05170704393803966,Louisiana,St. Bernard
22089,29.920490470588234,-90.32316617647058,279.083,0.06999694054852448,Louisiana,St. Charles
22091,30.934118523809524,-90.71215733333334,408.403,0.01499007360627097,Louisiana,St. Helena
22093,30.015853666666665,-90.82902533333333,241.537,0.028039370054370304,Louisiana,St. James
22095,30.135745214285716,-90.53265028571431,213.071,0.05661964214433137,Louisiana,St. John the Baptist
22097,30.528875941176466,-92.10164829411765,923.879,0.12867790716768082,Louisiana,St. Landry
22099,29.844430666666668,-91.28333711111111,737.648,0.07417240508184947,Louisiana,St. Martin
22101,29.643281134328365,-91.53755458208958,555.379,0.0670372328537398,Louisiana,St. Mary
22103,30.304553972972986,-89.71865624324323,845.551,0.27056568782522433,Louisiana,St. Tammany
22105,30.803851304347823,-90.43154569565219,791.275,0.17444177535550515,Louisiana,Tangipahoa
22107,32.037755121951214,-91.20725580487805,602.784,0.005960458987395419,Louisiana,Tensas
22109,29.250238527950312,-90.86558642236021,1231.815,0.1258631216826386,Louisiana,Terrebonne
22111,32.886260571428565,-92.43104352380952,876.988,0.038334437619497876,Louisiana,Union
22113,29.707909437500007,-92.18791789583332,1173.199,0.06940836228391084,Louisiana,Vermilion
22115,31.137065388888896,-93.33187366666668,1327.91,0.03763197379346079,Louisiana,Vernon
22117,30.94686317948718,-89.95816625641025,669.525,0.0622345994581143,Louisiana,Washington
22119,32.81703276190477,-93.36687547619047,593.03,0.05139004631478623,Louisiana,Webster
22121,30.550463875000002,-91.309016,192.394,0.03619573607707578,Louisiana,West Baton Rouge
22123,32.91175421052631,-91.39007615789474,359.646,0.014154518413847093,Louisiana,West Carroll
22125,30.86113275,-91.41901037500001,403.214,0.023481092104680225,Louisiana,West Feliciana
22127,31.90040163636364,-92.650507,950.086,0.025303731347604885,Louisiana,Winn
23001,44.17540132142857,-70.16996882142857,467.927,0.0394940693817861,Maine,Androscoggin
23003,46.792554636363626,-68.53098554545456,6671.33,0.0031870539204910055,Maine,Aroostook
23005,43.735106928571426,-70.11633557142856,835.241,0.10369509792572194,Maine,Cumberland
23007,45.1315195,-70.49277903846153,1696.609,0.005066997817272678,Maine,Franklin
23009,44.11597855555556,-68.50447700000001,1586.893,0.005811999678129572,Maine,Hancock
23011,44.40067219565217,-69.71576306521743,867.524,0.019972724624075032,Maine,Kennebec
23013,43.8460685,-68.89241857142856,365.134,0.006659829802588068,Maine,Knox
23015,43.76800654545454,-69.31108918181818,455.818,0.00438684333000025,Maine,Lincoln
23017,44.60952991071429,-70.77076085714286,2076.84,0.007884838138087623,Maine,Oxford
23019,45.23136965853658,-68.67077153658538,3397.362,0.016234857242465775,Maine,Penobscot
23021,45.64323634615384,-69.32860692307692,3960.856,0.0008854187963433254,Maine,Piscataquis
23023,43.86113152272726,-69.83480613636364,253.695,0.005567442015967046,Maine,Sagadahoc
23025,45.56259341666666,-70.02942962499999,3924.403,0.010637888884231866,Maine,Somerset
23027,44.298272310344835,-68.91692755172413,729.918,0.006718134745708322,Maine,Waldo
23029,44.490583611111106,-67.59389783333332,2562.66,0.004838014334485255,Maine,Washington
23031,43.371000475247534,-70.69179974257423,990.713,0.05797714061923745,Maine,York
24001,39.57476109090909,-78.66491724242427,424.158,0.05202777072240272,Maryland,Allegany
24003,38.948465633858284,-76.50706201181103,414.902,0.44687149478763155,Maryland,Anne Arundel
24005,39.30484738922155,-76.51614138323355,598.302,0.7541776594872043,Maryland,Baltimore
